{
"type": "FeatureCollection",
"name": "Park_Label_Points___park_label_point",
"crs": { "type": "name", "properties": { "name": "urn:ogc:def:crs:OGC:1.3:CRS84" } },
"features": [
{ "type": "Feature", "properties": { "OBJECTID": 1, "KC_Fac_FID": 2862, "KCParkFID": 6202601, "SiteName": "Enumclaw Pool Site", "SiteType": "Pool Site", "Owner": "City of Enumclaw", "OwnerType": "City", "Manager": "City of Enumclaw", "ManageType": "City", "Maintd_By": "City of Enumclaw", "MaintType": "City", "Label_Type": 1 }, "geometry": { "type": "Point", "coordinates": [ -122.008085324613802, 47.189115009474513 ] } },
{ "type": "Feature", "properties": { "OBJECTID": 2, "KC_Fac_FID": 2868, "KCParkFID": 5211801, "SiteName": "Auburn Pool Site", "SiteType": "Pool Site", "Owner": "Auburn School District", "OwnerType": "School District", "Manager": "Auburn School District", "ManageType": "School District", "Maintd_By": "Auburn School District", "MaintType": "School District", "Label_Type": 1 }, "geometry": { "type": "Point", "coordinates": [ -122.222234737042996, 47.31043807293706 ] } },
{ "type": "Feature", "properties": { "OBJECTID": 3, "KC_Fac_FID": 7087, "KCParkFID": 4263301, "SiteName": "Sacajawea Playground", "SiteType": "Park Site", "Owner": "City of Seattle", "OwnerType": "City", "Manager": "City of Seattle", "ManageType": "City", "Maintd_By": "City of Seattle", "MaintType": "City", "Label_Type": 1 }, "geometry": { "type": "Point", "coordinates": [ -122.308133214323917, 47.697132720673203 ] } },
{ "type": "Feature", "properties": { "OBJECTID": 4, "KC_Fac_FID": 2725, "KCParkFID": 5260901, "SiteName": "Woodin Creek Park", "SiteType": "Park Site", "Owner": "City of Woodinville", "OwnerType": "City", "Manager": "City of Woodinville", "ManageType": "City", "Maintd_By": "City of Woodinville", "MaintType": "City", "Label_Type": 1 }, "geometry": { "type": "Point", "coordinates": [ -122.163653756974256, 47.750165908874536 ] } },
{ "type": "Feature", "properties": { "OBJECTID": 5, "KC_Fac_FID": 7197, "KCParkFID": 4242102, "SiteName": "Maple School Ravine", "SiteType": "Park Site", "Owner": "City of Seattle", "OwnerType": "City", "Manager": "City of Seattle", "ManageType": "City", "Maintd_By": "City of Seattle", "MaintType": "City", "Label_Type": 0 }, "geometry": { "type": "Point", "coordinates": [ -122.307107055097674, 47.547485511478598 ] } },
{ "type": "Feature", "properties": { "OBJECTID": 6, "KC_Fac_FID": 7197, "KCParkFID": 4242102, "SiteName": "Maple School Ravine", "SiteType": "Park Site", "Owner": "City of Seattle", "OwnerType": "City", "Manager": "City of Seattle", "ManageType": "City", "Maintd_By": "City of Seattle", "MaintType": "City", "Label_Type": 1 }, "geometry": { "type": "Point", "coordinates": [ -122.309014463898365, 47.552311207672943 ] } },
{ "type": "Feature", "properties": { "OBJECTID": 7, "KC_Fac_FID": 2776, "KCParkFID": 3243602, "SiteName": "Roxhill Playground", "SiteType": "Park Site", "Owner": "City of Seattle", "OwnerType": "City", "Manager": "City of Seattle", "ManageType": "City", "Maintd_By": "City of Seattle", "MaintType": "City", "Label_Type": 1 }, "geometry": { "type": "Point", "coordinates": [ -122.368870056563068, 47.519473546587548 ] } },
{ "type": "Feature", "properties": { "OBJECTID": 8, "KC_Fac_FID": 2333, "KCParkFID": 5220701, "SiteName": "Garrison Creek Park", "SiteType": "Park Site", "Owner": "City of Kent", "OwnerType": "City", "Manager": "City of Kent", "ManageType": "City", "Maintd_By": "City of Kent", "MaintType": "City", "Label_Type": 1 }, "geometry": { "type": "Point", "coordinates": [ -122.210674090805696, 47.405873443867051 ] } },
{ "type": "Feature", "properties": { "OBJECTID": 9, "KC_Fac_FID": 8151, "KCParkFID": 5211904, "SiteName": "21st Street Playground", "SiteType": "Park Site", "Owner": "City of Auburn", "OwnerType": "City", "Manager": "City of Auburn", "ManageType": "City", "Maintd_By": "City of Auburn", "MaintType": "City", "Label_Type": 1 }, "geometry": { "type": "Point", "coordinates": [ -122.223773842781895, 47.29018291490766 ] } },
{ "type": "Feature", "properties": { "OBJECTID": 10, "KC_Fac_FID": 2601, "KCParkFID": 5260501, "SiteName": "William Penn Park", "SiteType": "Park Site", "Owner": "City of Bothell", "OwnerType": "City", "Manager": "City of Bothell", "ManageType": "City", "Maintd_By": "City of Bothell", "MaintType": "City", "Label_Type": 1 }, "geometry": { "type": "Point", "coordinates": [ -122.205628286211009, 47.772509607079286 ] } },
{ "type": "Feature", "properties": { "OBJECTID": 11, "KC_Fac_FID": 5014, "KCParkFID": 5242214, "SiteName": "Forest Glen East Neighborhood Park", "SiteType": "Park Site", "Owner": "City of Bellevue", "OwnerType": "City", "Manager": "City of Bellevue", "ManageType": "City", "Maintd_By": "City of Bellevue", "MaintType": "City", "Label_Type": 1 }, "geometry": { "type": "Point", "coordinates": [ -122.148372399322497, 47.545711091960463 ] } },
{ "type": "Feature", "properties": { "OBJECTID": 12, "KC_Fac_FID": 7037, "KCParkFID": 4253402, "SiteName": "Alvin Larkins Park", "SiteType": "Park Site", "Owner": "City of Seattle", "OwnerType": "City", "Manager": "City of Seattle", "ManageType": "City", "Maintd_By": "City of Seattle", "MaintType": "City", "Label_Type": 1 }, "geometry": { "type": "Point", "coordinates": [ -122.28874300777639, 47.614319738028385 ] } },
{ "type": "Feature", "properties": { "OBJECTID": 13, "KC_Fac_FID": 15404, "KCParkFID": 5210603, "SiteName": "Slaughter Memorial Park", "SiteType": "Park Site", "Owner": "City of Auburn", "OwnerType": "City", "Manager": "City of Auburn", "ManageType": "City", "Maintd_By": "City of Auburn", "MaintType": "City", "Label_Type": 1 }, "geometry": { "type": "Point", "coordinates": [ -122.221695792684841, 47.333625506329518 ] } },
{ "type": "Feature", "properties": { "OBJECTID": 14, "KC_Fac_FID": 2642, "KCParkFID": 5223301, "SiteName": "Springwood Park", "SiteType": "Park Site", "Owner": "City of Kent", "OwnerType": "City", "Manager": "City of Kent", "ManageType": "City", "Maintd_By": "City of Kent", "MaintType": "City", "Label_Type": 1 }, "geometry": { "type": "Point", "coordinates": [ -122.171775726505913, 47.355484772315776 ] } },
{ "type": "Feature", "properties": { "OBJECTID": 15, "KC_Fac_FID": 2501, "KCParkFID": 7263202, "SiteName": "Stillwater Natural Area", "SiteType": "Park Site", "Owner": "King County Parks and Recreation", "OwnerType": "King County Parks", "Manager": "King County Parks and Recreation", "ManageType": "King County Parks", "Maintd_By": "King County Parks and Recreation", "MaintType": "King County Parks", "Label_Type": 0 }, "geometry": { "type": "Point", "coordinates": [ -121.961219050782063, 47.68968816523649 ] } },
{ "type": "Feature", "properties": { "OBJECTID": 16, "KC_Fac_FID": 2501, "KCParkFID": 7263202, "SiteName": "Stillwater Natural Area", "SiteType": "Park Site", "Owner": "King County Parks and Recreation", "OwnerType": "King County Parks", "Manager": "King County Parks and Recreation", "ManageType": "King County Parks", "Maintd_By": "King County Parks and Recreation", "MaintType": "King County Parks", "Label_Type": 1 }, "geometry": { "type": "Point", "coordinates": [ -121.943445199486987, 47.687356660228026 ] } },
{ "type": "Feature", "properties": { "OBJECTID": 17, "KC_Fac_FID": 2501, "KCParkFID": 7263202, "SiteName": "Stillwater Natural Area", "SiteType": "Park Site", "Owner": "King County Parks and Recreation", "OwnerType": "King County Parks", "Manager": "King County Parks and Recreation", "ManageType": "King County Parks", "Maintd_By": "King County Parks and Recreation", "MaintType": "King County Parks", "Label_Type": 2 }, "geometry": { "type": "Point", "coordinates": [ -121.943812861846638, 47.689293046300044 ] } },
{ "type": "Feature", "properties": { "OBJECTID": 18, "KC_Fac_FID": 2566, "KCParkFID": 4223401, "SiteName": "Bingaman Pond Natural Area", "SiteType": "Park Site", "Owner": "King County Parks and Recreation", "OwnerType": "King County Parks", "Manager": "King County Parks and Recreation", "ManageType": "King County Parks", "Maintd_By": "King County Parks and Recreation", "MaintType": "King County Parks", "Label_Type": 0 }, "geometry": { "type": "Point", "coordinates": [ -122.285083701204272, 47.347613482106034 ] } },
{ "type": "Feature", "properties": { "OBJECTID": 19, "KC_Fac_FID": 2566, "KCParkFID": 4223401, "SiteName": "Bingaman Pond Natural Area", "SiteType": "Park Site", "Owner": "King County Parks and Recreation", "OwnerType": "King County Parks", "Manager": "King County Parks and Recreation", "ManageType": "King County Parks", "Maintd_By": "King County Parks and Recreation", "MaintType": "King County Parks", "Label_Type": 1 }, "geometry": { "type": "Point", "coordinates": [ -122.28317088672209, 47.347789659617959 ] } },
{ "type": "Feature", "properties": { "OBJECTID": 20, "KC_Fac_FID": 2566, "KCParkFID": 4223401, "SiteName": "Bingaman Pond Natural Area", "SiteType": "Park Site", "Owner": "King County Parks and Recreation", "OwnerType": "King County Parks", "Manager": "King County Parks and Recreation", "ManageType": "King County Parks", "Maintd_By": "King County Parks and Recreation", "MaintType": "King County Parks", "Label_Type": 2 }, "geometry": { "type": "Point", "coordinates": [ -122.283835834939367, 47.348767328281866 ] } },
{ "type": "Feature", "properties": { "OBJECTID": 21, "KC_Fac_FID": 2752, "KCParkFID": 6222201, "SiteName": "Wetland 79 Natural Area", "SiteType": "Park Site", "Owner": "King County Parks and Recreation", "OwnerType": "King County Parks", "Manager": "King County Parks and Recreation", "ManageType": "King County Parks", "Maintd_By": "King County Parks and Recreation", "MaintType": "King County Parks", "Label_Type": 1 }, "geometry": { "type": "Point", "coordinates": [ -122.01877520313667, 47.382340680589287 ] } },
{ "type": "Feature", "properties": { "OBJECTID": 22, "KC_Fac_FID": 2820, "KCParkFID": 7203101, "SiteName": "Pinnacle Peak Park", "SiteType": "Park Site", "Owner": "King County Parks and Recreation", "OwnerType": "King County Parks", "Manager": "King County Parks and Recreation", "ManageType": "King County Parks", "Maintd_By": "King County Parks and Recreation", "MaintType": "King County Parks", "Label_Type": 0 }, "geometry": { "type": "Point", "coordinates": [ -121.976526705756328, 47.171772775941236 ] } },
{ "type": "Feature", "properties": { "OBJECTID": 23, "KC_Fac_FID": 2820, "KCParkFID": 7203101, "SiteName": "Pinnacle Peak Park", "SiteType": "Park Site", "Owner": "King County Parks and Recreation", "OwnerType": "King County Parks", "Manager": "King County Parks and Recreation", "ManageType": "King County Parks", "Maintd_By": "King County Parks and Recreation", "MaintType": "King County Parks", "Label_Type": 1 }, "geometry": { "type": "Point", "coordinates": [ -121.971808576843003, 47.177984406329365 ] } },
{ "type": "Feature", "properties": { "OBJECTID": 24, "KC_Fac_FID": 3018, "KCParkFID": 8232501, "SiteName": "Boxley Creek Site", "SiteType": "Park Site", "Owner": "King County Parks and Recreation", "OwnerType": "King County Parks", "Manager": "King County Parks and Recreation", "ManageType": "King County Parks", "Maintd_By": "King County Parks and Recreation", "MaintType": "King County Parks", "Label_Type": 0 }, "geometry": { "type": "Point", "coordinates": [ -121.734723491798562, 47.451923739237309 ] } },
{ "type": "Feature", "properties": { "OBJECTID": 25, "KC_Fac_FID": 3018, "KCParkFID": 8232501, "SiteName": "Boxley Creek Site", "SiteType": "Park Site", "Owner": "King County Parks and Recreation", "OwnerType": "King County Parks", "Manager": "King County Parks and Recreation", "ManageType": "King County Parks", "Maintd_By": "King County Parks and Recreation", "MaintType": "King County Parks", "Label_Type": 1 }, "geometry": { "type": "Point", "coordinates": [ -121.73158865424061, 47.450556314133998 ] } },
{ "type": "Feature", "properties": { "OBJECTID": 26, "KC_Fac_FID": 7272, "KCParkFID": 6250602, "SiteName": "Perrigo Community Park", "SiteType": "Park Site", "Owner": "City of Redmond", "OwnerType": "City", "Manager": "City of Redmond", "ManageType": "City", "Maintd_By": "City of Redmond", "MaintType": "City", "Label_Type": 1 }, "geometry": { "type": "Point", "coordinates": [ -122.08314602359313, 47.68326989378744 ] } },
{ "type": "Feature", "properties": { "OBJECTID": 27, "KC_Fac_FID": 2576, "KCParkFID": 5251401, "SiteName": "Westside Park", "SiteType": "Park Site", "Owner": "City of Redmond", "OwnerType": "City", "Manager": "City of Redmond", "ManageType": "City", "Maintd_By": "City of Redmond", "MaintType": "City", "Label_Type": 1 }, "geometry": { "type": "Point", "coordinates": [ -122.130809238474683, 47.659284458744494 ] } },
{ "type": "Feature", "properties": { "OBJECTID": 28, "KC_Fac_FID": 2533, "KCParkFID": 8230201, "SiteName": "Mount Si NRCA", "SiteType": "Park Site", "Owner": "Washington State DNR", "OwnerType": "State", "Manager": "Washington State DNR", "ManageType": "State", "Maintd_By": "Washington State DNR", "MaintType": "State", "Label_Type": 0 }, "geometry": { "type": "Point", "coordinates": [ -121.651200906091461, 47.503366695212641 ] } },
{ "type": "Feature", "properties": { "OBJECTID": 29, "KC_Fac_FID": 2533, "KCParkFID": 8230201, "SiteName": "Mount Si NRCA", "SiteType": "Park Site", "Owner": "Washington State DNR", "OwnerType": "State", "Manager": "Washington State DNR", "ManageType": "State", "Maintd_By": "Washington State DNR", "MaintType": "State", "Label_Type": 1 }, "geometry": { "type": "Point", "coordinates": [ -121.67949843789593, 47.514143324363246 ] } },
{ "type": "Feature", "properties": { "OBJECTID": 30, "KC_Fac_FID": 7280, "KCParkFID": 3211203, "SiteName": "Dumas Bay Centre", "SiteType": "Park Site", "Owner": "City of Federal Way", "OwnerType": "City", "Manager": "City of Federal Way", "ManageType": "City", "Maintd_By": "City of Federal Way", "MaintType": "City", "Label_Type": 1 }, "geometry": { "type": "Point", "coordinates": [ -122.375350867278101, 47.328463256430538 ] } },
{ "type": "Feature", "properties": { "OBJECTID": 31, "KC_Fac_FID": 2600, "KCParkFID": 5260502, "SiteName": "Royal Oaks Park", "SiteType": "Park Site", "Owner": "City of Bothell", "OwnerType": "City", "Manager": "City of Bothell", "ManageType": "City", "Maintd_By": "City of Bothell", "MaintType": "City", "Label_Type": 0 }, "geometry": { "type": "Point", "coordinates": [ -122.198483578418944, 47.775241349686304 ] } },
{ "type": "Feature", "properties": { "OBJECTID": 32, "KC_Fac_FID": 2600, "KCParkFID": 5260502, "SiteName": "Royal Oaks Park", "SiteType": "Park Site", "Owner": "City of Bothell", "OwnerType": "City", "Manager": "City of Bothell", "ManageType": "City", "Maintd_By": "City of Bothell", "MaintType": "City", "Label_Type": 1 }, "geometry": { "type": "Point", "coordinates": [ -122.198742123321907, 47.775728916365395 ] } },
{ "type": "Feature", "properties": { "OBJECTID": 33, "KC_Fac_FID": 5026, "KCParkFID": 5242403, "SiteName": "Lakemont - Chandler Neighborhood Park", "SiteType": "Park Site", "Owner": "City of Bellevue", "OwnerType": "City", "Manager": "City of Bellevue", "ManageType": "City", "Maintd_By": "City of Bellevue", "MaintType": "City", "Label_Type": 0 }, "geometry": { "type": "Point", "coordinates": [ -122.120443438116141, 47.55131040169838 ] } },
{ "type": "Feature", "properties": { "OBJECTID": 34, "KC_Fac_FID": 5026, "KCParkFID": 5242403, "SiteName": "Lakemont - Chandler Neighborhood Park", "SiteType": "Park Site", "Owner": "City of Bellevue", "OwnerType": "City", "Manager": "City of Bellevue", "ManageType": "City", "Maintd_By": "City of Bellevue", "MaintType": "City", "Label_Type": 1 }, "geometry": { "type": "Point", "coordinates": [ -122.116853917609021, 47.553907805822298 ] } },
{ "type": "Feature", "properties": { "OBJECTID": 35, "KC_Fac_FID": 8124, "KCParkFID": 4212301, "SiteName": "7th Avenue Park", "SiteType": "Park Site", "Owner": "City of Algona", "OwnerType": "City", "Manager": "City of Algona", "ManageType": "City", "Maintd_By": "City of Algona", "MaintType": "City", "Label_Type": 1 }, "geometry": { "type": "Point", "coordinates": [ -122.257093830881701, 47.2875370944219 ] } },
{ "type": "Feature", "properties": { "OBJECTID": 36, "KC_Fac_FID": 7013, "KCParkFID": 4252703, "SiteName": "Denny Blaine Park", "SiteType": "Park Site", "Owner": "City of Seattle", "OwnerType": "City", "Manager": "City of Seattle", "ManageType": "City", "Maintd_By": "City of Seattle", "MaintType": "City", "Label_Type": 0 }, "geometry": { "type": "Point", "coordinates": [ -122.280953878642933, 47.62018624686236 ] } },
{ "type": "Feature", "properties": { "OBJECTID": 37, "KC_Fac_FID": 7013, "KCParkFID": 4252703, "SiteName": "Denny Blaine Park", "SiteType": "Park Site", "Owner": "City of Seattle", "OwnerType": "City", "Manager": "City of Seattle", "ManageType": "City", "Maintd_By": "City of Seattle", "MaintType": "City", "Label_Type": 1 }, "geometry": { "type": "Point", "coordinates": [ -122.280296488649356, 47.620062251654673 ] } },
{ "type": "Feature", "properties": { "OBJECTID": 38, "KC_Fac_FID": 2316, "KCParkFID": 4251801, "SiteName": "Wallingford Playfield", "SiteType": "Park Site", "Owner": "City of Seattle", "OwnerType": "City", "Manager": "City of Seattle", "ManageType": "City", "Maintd_By": "City of Seattle", "MaintType": "City", "Label_Type": 1 }, "geometry": { "type": "Point", "coordinates": [ -122.337433548552582, 47.658554043851197 ] } },
{ "type": "Feature", "properties": { "OBJECTID": 39, "KC_Fac_FID": 2424, "KCParkFID": 4212702, "SiteName": "South County Ballfields", "SiteType": "Park Site", "Owner": "King County Parks and Recreation", "OwnerType": "King County Parks", "Manager": "King County Parks and Recreation", "ManageType": "King County Parks", "Maintd_By": "King County Parks and Recreation", "MaintType": "King County Parks", "Label_Type": 0 }, "geometry": { "type": "Point", "coordinates": [ -122.274977347814783, 47.283540081090038 ] } },
{ "type": "Feature", "properties": { "OBJECTID": 40, "KC_Fac_FID": 2424, "KCParkFID": 4212702, "SiteName": "South County Ballfields", "SiteType": "Park Site", "Owner": "King County Parks and Recreation", "OwnerType": "King County Parks", "Manager": "King County Parks and Recreation", "ManageType": "King County Parks", "Maintd_By": "King County Parks and Recreation", "MaintType": "King County Parks", "Label_Type": 1 }, "geometry": { "type": "Point", "coordinates": [ -122.274377541381611, 47.28452612955391 ] } },
{ "type": "Feature", "properties": { "OBJECTID": 41, "KC_Fac_FID": 2984, "KCParkFID": 7253401, "SiteName": "Griffin Creek Natural Area", "SiteType": "Park Site", "Owner": "King County Parks and Recreation", "OwnerType": "King County Parks", "Manager": "King County Parks and Recreation", "ManageType": "King County Parks", "Maintd_By": "King County Parks and Recreation", "MaintType": "King County Parks", "Label_Type": 0 }, "geometry": { "type": "Point", "coordinates": [ -121.889768860510543, 47.607777815476787 ] } },
{ "type": "Feature", "properties": { "OBJECTID": 42, "KC_Fac_FID": 2984, "KCParkFID": 7253401, "SiteName": "Griffin Creek Natural Area", "SiteType": "Park Site", "Owner": "King County Parks and Recreation", "OwnerType": "King County Parks", "Manager": "King County Parks and Recreation", "ManageType": "King County Parks", "Maintd_By": "King County Parks and Recreation", "MaintType": "King County Parks", "Label_Type": 1 }, "geometry": { "type": "Point", "coordinates": [ -121.889113684055459, 47.605499801027143 ] } },
{ "type": "Feature", "properties": { "OBJECTID": 43, "KC_Fac_FID": 2984, "KCParkFID": 7253401, "SiteName": "Griffin Creek Natural Area", "SiteType": "Park Site", "Owner": "King County Parks and Recreation", "OwnerType": "King County Parks", "Manager": "King County Parks and Recreation", "ManageType": "King County Parks", "Maintd_By": "King County Parks and Recreation", "MaintType": "King County Parks", "Label_Type": 2 }, "geometry": { "type": "Point", "coordinates": [ -121.899049841167198, 47.615876942689383 ] } },
{ "type": "Feature", "properties": { "OBJECTID": 44, "KC_Fac_FID": 4583, "KCParkFID": 6202606, "SiteName": "Scott Park", "SiteType": "Park Site", "Owner": "City of Enumclaw", "OwnerType": "City", "Manager": "City of Enumclaw", "ManageType": "City", "Maintd_By": "City of Enumclaw", "MaintType": "City", "Label_Type": 1 }, "geometry": { "type": "Point", "coordinates": [ -121.994520537310592, 47.199064792097026 ] } },
{ "type": "Feature", "properties": { "OBJECTID": 45, "KC_Fac_FID": 4859, "KCParkFID": 4230402, "SiteName": "Hamm Creek Natural Area", "SiteType": "Park Site", "Owner": "King County Parks and Recreation", "OwnerType": "King County Parks", "Manager": "King County Parks and Recreation", "ManageType": "King County Parks", "Maintd_By": "King County Parks and Recreation", "MaintType": "King County Parks", "Label_Type": 0 }, "geometry": { "type": "Point", "coordinates": [ -122.310680134518321, 47.51246249530471 ] } },
{ "type": "Feature", "properties": { "OBJECTID": 46, "KC_Fac_FID": 4859, "KCParkFID": 4230402, "SiteName": "Hamm Creek Natural Area", "SiteType": "Park Site", "Owner": "King County Parks and Recreation", "OwnerType": "King County Parks", "Manager": "King County Parks and Recreation", "ManageType": "King County Parks", "Maintd_By": "King County Parks and Recreation", "MaintType": "King County Parks", "Label_Type": 1 }, "geometry": { "type": "Point", "coordinates": [ -122.310856799712084, 47.511152575839112 ] } },
{ "type": "Feature", "properties": { "OBJECTID": 47, "KC_Fac_FID": 4859, "KCParkFID": 4230402, "SiteName": "Hamm Creek Natural Area", "SiteType": "Park Site", "Owner": "King County Parks and Recreation", "OwnerType": "King County Parks", "Manager": "King County Parks and Recreation", "ManageType": "King County Parks", "Maintd_By": "King County Parks and Recreation", "MaintType": "King County Parks", "Label_Type": 2 }, "geometry": { "type": "Point", "coordinates": [ -122.313133127897245, 47.510708038739359 ] } },
{ "type": "Feature", "properties": { "OBJECTID": 48, "KC_Fac_FID": 8115, "KCParkFID": 7243506, "SiteName": "Jeanne Hansen Park", "SiteType": "Park Site", "Owner": "City of Snoqualmie", "OwnerType": "City", "Manager": "City of Snoqualmie", "ManageType": "City", "Maintd_By": "City of Snoqualmie", "MaintType": "City", "Label_Type": 1 }, "geometry": { "type": "Point", "coordinates": [ -121.881148799896224, 47.518464209144497 ] } },
{ "type": "Feature", "properties": { "OBJECTID": 49, "KC_Fac_FID": 2667, "KCParkFID": 6222101, "SiteName": "Lake Wilderness Park", "SiteType": "Park Site", "Owner": "City of Maple Valley", "OwnerType": "City", "Manager": "City of Maple Valley", "ManageType": "City", "Maintd_By": "City of Maple Valley", "MaintType": "City", "Label_Type": 0 }, "geometry": { "type": "Point", "coordinates": [ -122.039889404782897, 47.381996964548456 ] } },
{ "type": "Feature", "properties": { "OBJECTID": 50, "KC_Fac_FID": 2667, "KCParkFID": 6222101, "SiteName": "Lake Wilderness Park", "SiteType": "Park Site", "Owner": "City of Maple Valley", "OwnerType": "City", "Manager": "City of Maple Valley", "ManageType": "City", "Maintd_By": "City of Maple Valley", "MaintType": "City", "Label_Type": 1 }, "geometry": { "type": "Point", "coordinates": [ -122.040167317209907, 47.376155573240595 ] } },
{ "type": "Feature", "properties": { "OBJECTID": 51, "KC_Fac_FID": 5091, "KCParkFID": 5241904, "SiteName": "Parkwood Ridge Open Space", "SiteType": "Park Site", "Owner": "City of Mercer Island", "OwnerType": "City", "Manager": "City of Mercer Island", "ManageType": "City", "Maintd_By": "City of Mercer Island", "MaintType": "City", "Label_Type": 1 }, "geometry": { "type": "Point", "coordinates": [ -122.215156604085948, 47.552617071347811 ] } },
{ "type": "Feature", "properties": { "OBJECTID": 52, "KC_Fac_FID": 2652, "KCParkFID": 5243003, "SiteName": "Wildwood Park - Mercer Island", "SiteType": "Park Site", "Owner": "City of Mercer Island", "OwnerType": "City", "Manager": "City of Mercer Island", "ManageType": "City", "Maintd_By": "City of Mercer Island", "MaintType": "City", "Label_Type": 1 }, "geometry": { "type": "Point", "coordinates": [ -122.223062774425543, 47.536624442624202 ] } },
{ "type": "Feature", "properties": { "OBJECTID": 53, "KC_Fac_FID": 2710, "KCParkFID": 5261401, "SiteName": "Gold Creek Park", "SiteType": "Park Site", "Owner": "King County Parks and Recreation", "OwnerType": "King County Parks", "Manager": "King County Parks and Recreation", "ManageType": "King County Parks", "Maintd_By": "King County Parks and Recreation", "MaintType": "King County Parks", "Label_Type": 1 }, "geometry": { "type": "Point", "coordinates": [ -122.139183051305892, 47.742789194926168 ] } },
{ "type": "Feature", "properties": { "OBJECTID": 54, "KC_Fac_FID": 5041, "KCParkFID": 5242305, "SiteName": "SE 63rd Greenbelt South", "SiteType": "Park Site", "Owner": "City of Bellevue", "OwnerType": "City", "Manager": "City of Bellevue", "ManageType": "City", "Maintd_By": "City of Bellevue", "MaintType": "City", "Label_Type": 0 }, "geometry": { "type": "Point", "coordinates": [ -122.137831598054916, 47.5424169048868 ] } },
{ "type": "Feature", "properties": { "OBJECTID": 55, "KC_Fac_FID": 5041, "KCParkFID": 5242305, "SiteName": "SE 63rd Greenbelt South", "SiteType": "Park Site", "Owner": "City of Bellevue", "OwnerType": "City", "Manager": "City of Bellevue", "ManageType": "City", "Maintd_By": "City of Bellevue", "MaintType": "City", "Label_Type": 1 }, "geometry": { "type": "Point", "coordinates": [ -122.135846521255147, 47.545770442836606 ] } },
{ "type": "Feature", "properties": { "OBJECTID": 56, "KC_Fac_FID": 5049, "KCParkFID": 5242312, "SiteName": "The Summit Open Space", "SiteType": "Park Site", "Owner": "City of Bellevue", "OwnerType": "City", "Manager": "City of Bellevue", "ManageType": "City", "Maintd_By": "City of Bellevue", "MaintType": "City", "Label_Type": 0 }, "geometry": { "type": "Point", "coordinates": [ -122.134232494512972, 47.555575309265677 ] } },
{ "type": "Feature", "properties": { "OBJECTID": 57, "KC_Fac_FID": 5049, "KCParkFID": 5242312, "SiteName": "The Summit Open Space", "SiteType": "Park Site", "Owner": "City of Bellevue", "OwnerType": "City", "Manager": "City of Bellevue", "ManageType": "City", "Maintd_By": "City of Bellevue", "MaintType": "City", "Label_Type": 1 }, "geometry": { "type": "Point", "coordinates": [ -122.130917825744561, 47.556236494889262 ] } },
{ "type": "Feature", "properties": { "OBJECTID": 58, "KC_Fac_FID": 15343, "KCParkFID": 4213507, "SiteName": "Blueberry Park", "SiteType": "Park Site", "Owner": "City of Pacific", "OwnerType": "City", "Manager": "City of Pacific", "ManageType": "City", "Maintd_By": "City of Pacific", "MaintType": "City", "Label_Type": 1 }, "geometry": { "type": "Point", "coordinates": [ -122.251459709164635, 47.260899205990505 ] } },
{ "type": "Feature", "properties": { "OBJECTID": 59, "KC_Fac_FID": 2306, "KCParkFID": 4253005, "SiteName": "Denny Park", "SiteType": "Park Site", "Owner": "City of Seattle", "OwnerType": "City", "Manager": "City of Seattle", "ManageType": "City", "Maintd_By": "City of Seattle", "MaintType": "City", "Label_Type": 1 }, "geometry": { "type": "Point", "coordinates": [ -122.341049094222626, 47.619129884028524 ] } },
{ "type": "Feature", "properties": { "OBJECTID": 60, "KC_Fac_FID": 5386, "KCParkFID": 7242505, "SiteName": "Denny Peak Park", "SiteType": "Park Site", "Owner": "City of Snoqualmie", "OwnerType": "City", "Manager": "City of Snoqualmie", "ManageType": "City", "Maintd_By": "City of Snoqualmie", "MaintType": "City", "Label_Type": 1 }, "geometry": { "type": "Point", "coordinates": [ -121.861261634381833, 47.543336642590901 ] } },
{ "type": "Feature", "properties": { "OBJECTID": 61, "KC_Fac_FID": 5311, "KCParkFID": 4222103, "SiteName": "Sonju Park", "SiteType": "Park Site", "Owner": "City of Des Moines", "OwnerType": "City", "Manager": "City of Des Moines", "ManageType": "City", "Maintd_By": "City of Des Moines", "MaintType": "City", "Label_Type": 1 }, "geometry": { "type": "Point", "coordinates": [ -122.310523550664684, 47.380042036655766 ] } },
{ "type": "Feature", "properties": { "OBJECTID": 62, "KC_Fac_FID": 2381, "KCParkFID": 7252101, "SiteName": "Valley Memorial Park", "SiteType": "Park Site", "Owner": "City of Carnation", "OwnerType": "City", "Manager": "City of Carnation", "ManageType": "City", "Maintd_By": "City of Carnation", "MaintType": "City", "Label_Type": 1 }, "geometry": { "type": "Point", "coordinates": [ -121.912922047881011, 47.643456112080862 ] } },
{ "type": "Feature", "properties": { "OBJECTID": 63, "KC_Fac_FID": 8104, "KCParkFID": 4233101, "SiteName": "Nist Park", "SiteType": "Park Site", "Owner": "City of Normandy Park", "OwnerType": "City", "Manager": "City of Normandy Park", "ManageType": "City", "Maintd_By": "City of Normandy Park", "MaintType": "City", "Label_Type": 1 }, "geometry": { "type": "Point", "coordinates": [ -122.339169840089923, 47.440953871829741 ] } },
{ "type": "Feature", "properties": { "OBJECTID": 64, "KC_Fac_FID": 8213, "KCParkFID": 6242301, "SiteName": "Grand View Park", "SiteType": "Park Site", "Owner": "City of Issaquah", "OwnerType": "City", "Manager": "City of Issaquah", "ManageType": "City", "Maintd_By": "City of Issaquah", "MaintType": "City", "Label_Type": 1 }, "geometry": { "type": "Point", "coordinates": [ -121.996651166340627, 47.554968790417739 ] } },
{ "type": "Feature", "properties": { "OBJECTID": 65, "KC_Fac_FID": 2264, "KCParkFID": 4261601, "SiteName": "Hamlin Park", "SiteType": "Park Site", "Owner": "City of Shoreline", "OwnerType": "City", "Manager": "City of Shoreline", "ManageType": "City", "Maintd_By": "City of Shoreline", "MaintType": "City", "Label_Type": 0 }, "geometry": { "type": "Point", "coordinates": [ -122.309280992623414, 47.749262578001776 ] } },
{ "type": "Feature", "properties": { "OBJECTID": 66, "KC_Fac_FID": 2264, "KCParkFID": 4261601, "SiteName": "Hamlin Park", "SiteType": "Park Site", "Owner": "City of Shoreline", "OwnerType": "City", "Manager": "City of Shoreline", "ManageType": "City", "Maintd_By": "City of Shoreline", "MaintType": "City", "Label_Type": 1 }, "geometry": { "type": "Point", "coordinates": [ -122.307554777862734, 47.746579761683236 ] } },
{ "type": "Feature", "properties": { "OBJECTID": 67, "KC_Fac_FID": 2831, "KCParkFID": 7212901, "SiteName": "Nolte State Park", "SiteType": "Park Site", "Owner": "Washington State Parks", "OwnerType": "State", "Manager": "Washington State Parks", "ManageType": "State", "Maintd_By": "Washington State Parks", "MaintType": "State", "Label_Type": 0 }, "geometry": { "type": "Point", "coordinates": [ -121.94057963881086, 47.267124231911325 ] } },
{ "type": "Feature", "properties": { "OBJECTID": 68, "KC_Fac_FID": 2831, "KCParkFID": 7212901, "SiteName": "Nolte State Park", "SiteType": "Park Site", "Owner": "Washington State Parks", "OwnerType": "State", "Manager": "Washington State Parks", "ManageType": "State", "Maintd_By": "Washington State Parks", "MaintType": "State", "Label_Type": 1 }, "geometry": { "type": "Point", "coordinates": [ -121.940331402039547, 47.273531586184873 ] } },
{ "type": "Feature", "properties": { "OBJECTID": 69, "KC_Fac_FID": 8227, "KCParkFID": 4261004, "SiteName": "Whispering Willow Park", "SiteType": "Park Site", "Owner": "City of Lake Forest Park", "OwnerType": "City", "Manager": "City of Lake Forest Park", "ManageType": "City", "Maintd_By": "City of Lake Forest Park", "MaintType": "City", "Label_Type": 1 }, "geometry": { "type": "Point", "coordinates": [ -122.281408005583643, 47.75320835950756 ] } },
{ "type": "Feature", "properties": { "OBJECTID": 70, "KC_Fac_FID": 7084, "KCParkFID": 3263504, "SiteName": "Blue Ridge Circle", "SiteType": "Park Site", "Owner": "City of Seattle", "OwnerType": "City", "Manager": "City of Seattle", "ManageType": "City", "Maintd_By": "City of Seattle", "MaintType": "City", "Label_Type": 1 }, "geometry": { "type": "Point", "coordinates": [ -122.380444566238666, 47.704331143349421 ] } },
{ "type": "Feature", "properties": { "OBJECTID": 71, "KC_Fac_FID": 2598, "KCParkFID": 6262401, "SiteName": "Duvall Park", "SiteType": "Park Site", "Owner": "King County Parks and Recreation", "OwnerType": "King County Parks", "Manager": "King County Parks and Recreation", "ManageType": "King County Parks", "Maintd_By": "King County Parks and Recreation", "MaintType": "King County Parks", "Label_Type": 0 }, "geometry": { "type": "Point", "coordinates": [ -121.988475692564379, 47.722572762874847 ] } },
{ "type": "Feature", "properties": { "OBJECTID": 72, "KC_Fac_FID": 2598, "KCParkFID": 6262401, "SiteName": "Duvall Park", "SiteType": "Park Site", "Owner": "King County Parks and Recreation", "OwnerType": "King County Parks", "Manager": "King County Parks and Recreation", "ManageType": "King County Parks", "Maintd_By": "King County Parks and Recreation", "MaintType": "King County Parks", "Label_Type": 1 }, "geometry": { "type": "Point", "coordinates": [ -121.987037399883391, 47.720114030166918 ] } },
{ "type": "Feature", "properties": { "OBJECTID": 73, "KC_Fac_FID": 2764, "KCParkFID": 6221502, "SiteName": "Dorre Don Reach Natural Area", "SiteType": "Park Site", "Owner": "King County Parks and Recreation", "OwnerType": "King County Parks", "Manager": "King County Parks and Recreation", "ManageType": "King County Parks", "Maintd_By": "King County Parks and Recreation", "MaintType": "King County Parks", "Label_Type": 0 }, "geometry": { "type": "Point", "coordinates": [ -122.027602194039176, 47.39066877020614 ] } },
{ "type": "Feature", "properties": { "OBJECTID": 74, "KC_Fac_FID": 2764, "KCParkFID": 6221502, "SiteName": "Dorre Don Reach Natural Area", "SiteType": "Park Site", "Owner": "King County Parks and Recreation", "OwnerType": "King County Parks", "Manager": "King County Parks and Recreation", "ManageType": "King County Parks", "Maintd_By": "King County Parks and Recreation", "MaintType": "King County Parks", "Label_Type": 1 }, "geometry": { "type": "Point", "coordinates": [ -122.031427644157262, 47.39615458125521 ] } },
{ "type": "Feature", "properties": { "OBJECTID": 75, "KC_Fac_FID": 2764, "KCParkFID": 6221502, "SiteName": "Dorre Don Reach Natural Area", "SiteType": "Park Site", "Owner": "King County Parks and Recreation", "OwnerType": "King County Parks", "Manager": "King County Parks and Recreation", "ManageType": "King County Parks", "Maintd_By": "King County Parks and Recreation", "MaintType": "King County Parks", "Label_Type": 2 }, "geometry": { "type": "Point", "coordinates": [ -122.032689993723125, 47.395051020648033 ] } },
{ "type": "Feature", "properties": { "OBJECTID": 76, "KC_Fac_FID": 2361, "KCParkFID": 5210801, "SiteName": "Auburndale Park", "SiteType": "Park Site", "Owner": "City of Auburn", "OwnerType": "City", "Manager": "City of Auburn", "ManageType": "City", "Maintd_By": "City of Auburn", "MaintType": "City", "Label_Type": 1 }, "geometry": { "type": "Point", "coordinates": [ -122.196394112641954, 47.31812685766684 ] } },
{ "type": "Feature", "properties": { "OBJECTID": 77, "KC_Fac_FID": 2796, "KCParkFID": 4252201, "SiteName": "Madison Park", "SiteType": "Park Site", "Owner": "City of Seattle", "OwnerType": "City", "Manager": "City of Seattle", "ManageType": "City", "Maintd_By": "City of Seattle", "MaintType": "City", "Label_Type": 1 }, "geometry": { "type": "Point", "coordinates": [ -122.276186015476412, 47.635813292775694 ] } },
{ "type": "Feature", "properties": { "OBJECTID": 78, "KC_Fac_FID": 2280, "KCParkFID": 4250301, "SiteName": "View Ridge Playfield", "SiteType": "Park Site", "Owner": "City of Seattle", "OwnerType": "City", "Manager": "City of Seattle", "ManageType": "City", "Maintd_By": "City of Seattle", "MaintType": "City", "Label_Type": 1 }, "geometry": { "type": "Point", "coordinates": [ -122.281073025182408, 47.680360812194252 ] } },
{ "type": "Feature", "properties": { "OBJECTID": 79, "KC_Fac_FID": 5010, "KCParkFID": 5242502, "SiteName": "Cougar Ridge East Open Space", "SiteType": "Park Site", "Owner": "City of Bellevue", "OwnerType": "City", "Manager": "City of Bellevue", "ManageType": "City", "Maintd_By": "City of Bellevue", "MaintType": "City", "Label_Type": 0 }, "geometry": { "type": "Point", "coordinates": [ -122.117634023963262, 47.539663867970241 ] } },
{ "type": "Feature", "properties": { "OBJECTID": 80, "KC_Fac_FID": 5010, "KCParkFID": 5242502, "SiteName": "Cougar Ridge East Open Space", "SiteType": "Park Site", "Owner": "City of Bellevue", "OwnerType": "City", "Manager": "City of Bellevue", "ManageType": "City", "Maintd_By": "City of Bellevue", "MaintType": "City", "Label_Type": 1 }, "geometry": { "type": "Point", "coordinates": [ -122.117105111561727, 47.540283614116419 ] } },
{ "type": "Feature", "properties": { "OBJECTID": 81, "KC_Fac_FID": 5021, "KCParkFID": 5242602, "SiteName": "Forest Ridge Open Space", "SiteType": "Park Site", "Owner": "City of Bellevue", "OwnerType": "City", "Manager": "City of Bellevue", "ManageType": "City", "Maintd_By": "City of Bellevue", "MaintType": "City", "Label_Type": 0 }, "geometry": { "type": "Point", "coordinates": [ -122.130506260869865, 47.541985463290047 ] } },
{ "type": "Feature", "properties": { "OBJECTID": 82, "KC_Fac_FID": 5021, "KCParkFID": 5242602, "SiteName": "Forest Ridge Open Space", "SiteType": "Park Site", "Owner": "City of Bellevue", "OwnerType": "City", "Manager": "City of Bellevue", "ManageType": "City", "Maintd_By": "City of Bellevue", "MaintType": "City", "Label_Type": 1 }, "geometry": { "type": "Point", "coordinates": [ -122.130210813917074, 47.544736954225932 ] } },
{ "type": "Feature", "properties": { "OBJECTID": 83, "KC_Fac_FID": 8112, "KCParkFID": 6243303, "SiteName": "Gibson Park", "SiteType": "Park Site", "Owner": "City of Issaquah", "OwnerType": "City", "Manager": "City of Issaquah", "ManageType": "City", "Maintd_By": "City of Issaquah", "MaintType": "City", "Label_Type": 0 }, "geometry": { "type": "Point", "coordinates": [ -122.040002057051083, 47.5294719949975 ] } },
{ "type": "Feature", "properties": { "OBJECTID": 84, "KC_Fac_FID": 8112, "KCParkFID": 6243303, "SiteName": "Gibson Park", "SiteType": "Park Site", "Owner": "City of Issaquah", "OwnerType": "City", "Manager": "City of Issaquah", "ManageType": "City", "Maintd_By": "City of Issaquah", "MaintType": "City", "Label_Type": 1 }, "geometry": { "type": "Point", "coordinates": [ -122.040054474810987, 47.52866208055714 ] } },
{ "type": "Feature", "properties": { "OBJECTID": 85, "KC_Fac_FID": 7595, "KCParkFID": 3232601, "SiteName": "Indian Trail Site", "SiteType": "Park Site", "Owner": "City of Burien", "OwnerType": "City", "Manager": "City of Burien", "ManageType": "City", "Maintd_By": "City of Burien", "MaintType": "City", "Label_Type": 0 }, "geometry": { "type": "Point", "coordinates": [ -122.372890789152805, 47.455049553532511 ] } },
{ "type": "Feature", "properties": { "OBJECTID": 86, "KC_Fac_FID": 7595, "KCParkFID": 3232601, "SiteName": "Indian Trail Site", "SiteType": "Park Site", "Owner": "City of Burien", "OwnerType": "City", "Manager": "City of Burien", "ManageType": "City", "Maintd_By": "City of Burien", "MaintType": "City", "Label_Type": 1 }, "geometry": { "type": "Point", "coordinates": [ -122.378951455675008, 47.449607619643757 ] } },
{ "type": "Feature", "properties": { "OBJECTID": 87, "KC_Fac_FID": 7819, "KCParkFID": 5253205, "SiteName": "Southeast 6th Street Open Space", "SiteType": "Park Site", "Owner": "City of Bellevue", "OwnerType": "City", "Manager": "City of Bellevue", "ManageType": "City", "Maintd_By": "City of Bellevue", "MaintType": "City", "Label_Type": 1 }, "geometry": { "type": "Point", "coordinates": [ -122.205349695576118, 47.604078673667004 ] } },
{ "type": "Feature", "properties": { "OBJECTID": 88, "KC_Fac_FID": 5303, "KCParkFID": 3222902, "SiteName": "Dockton Forest", "SiteType": "Park Site", "Owner": "King County Parks and Recreation", "OwnerType": "King County Parks", "Manager": "King County Parks and Recreation", "ManageType": "King County Parks", "Maintd_By": "King County Parks and Recreation", "MaintType": "King County Parks", "Label_Type": 0 }, "geometry": { "type": "Point", "coordinates": [ -122.42896389028536, 47.376551260051386 ] } },
{ "type": "Feature", "properties": { "OBJECTID": 89, "KC_Fac_FID": 5303, "KCParkFID": 3222902, "SiteName": "Dockton Forest", "SiteType": "Park Site", "Owner": "King County Parks and Recreation", "OwnerType": "King County Parks", "Manager": "King County Parks and Recreation", "ManageType": "King County Parks", "Maintd_By": "King County Parks and Recreation", "MaintType": "King County Parks", "Label_Type": 1 }, "geometry": { "type": "Point", "coordinates": [ -122.447070218775636, 47.369023131816562 ] } },
{ "type": "Feature", "properties": { "OBJECTID": 90, "KC_Fac_FID": 5303, "KCParkFID": 3222902, "SiteName": "Dockton Forest", "SiteType": "Park Site", "Owner": "King County Parks and Recreation", "OwnerType": "King County Parks", "Manager": "King County Parks and Recreation", "ManageType": "King County Parks", "Maintd_By": "King County Parks and Recreation", "MaintType": "King County Parks", "Label_Type": 2 }, "geometry": { "type": "Point", "coordinates": [ -122.43966059985182, 47.372535609901554 ] } },
{ "type": "Feature", "properties": { "OBJECTID": 91, "KC_Fac_FID": 5303, "KCParkFID": 3222902, "SiteName": "Dockton Forest", "SiteType": "Park Site", "Owner": "King County Parks and Recreation", "OwnerType": "King County Parks", "Manager": "King County Parks and Recreation", "ManageType": "King County Parks", "Maintd_By": "King County Parks and Recreation", "MaintType": "King County Parks", "Label_Type": 3 }, "geometry": { "type": "Point", "coordinates": [ -122.436958431716278, 47.375540552389047 ] } },
{ "type": "Feature", "properties": { "OBJECTID": 92, "KC_Fac_FID": 5019, "KCParkFID": 5242209, "SiteName": "Forest Park Open Space", "SiteType": "Park Site", "Owner": "City of Bellevue", "OwnerType": "City", "Manager": "City of Bellevue", "ManageType": "City", "Maintd_By": "City of Bellevue", "MaintType": "City", "Label_Type": 1 }, "geometry": { "type": "Point", "coordinates": [ -122.152389491488734, 47.553709612702249 ] } },
{ "type": "Feature", "properties": { "OBJECTID": 93, "KC_Fac_FID": 7217, "KCParkFID": 4230203, "SiteName": "Thayer Place", "SiteType": "Park Site", "Owner": "City of Seattle", "OwnerType": "City", "Manager": "City of Seattle", "ManageType": "City", "Maintd_By": "City of Seattle", "MaintType": "City", "Label_Type": 1 }, "geometry": { "type": "Point", "coordinates": [ -122.250035790522475, 47.510612737681015 ] } },
{ "type": "Feature", "properties": { "OBJECTID": 94, "KC_Fac_FID": 6899, "KCParkFID": 5252906, "SiteName": "Ashwood Playfield", "SiteType": "Park Site", "Owner": "City of Bellevue", "OwnerType": "City", "Manager": "City of Bellevue", "ManageType": "City", "Maintd_By": "City of Bellevue", "MaintType": "City", "Label_Type": 1 }, "geometry": { "type": "Point", "coordinates": [ -122.195180628005133, 47.620236888117432 ] } },
{ "type": "Feature", "properties": { "OBJECTID": 95, "KC_Fac_FID": 15314, "KCParkFID": 4220203, "SiteName": "Three Friends Fishing Hole", "SiteType": "Park Site", "Owner": "City of Kent", "OwnerType": "City", "Manager": "City of Kent", "ManageType": "City", "Maintd_By": "City of Kent", "MaintType": "City", "Label_Type": 1 }, "geometry": { "type": "Point", "coordinates": [ -122.264687234782855, 47.421276266657813 ] } },
{ "type": "Feature", "properties": { "OBJECTID": 96, "KC_Fac_FID": 6892, "KCParkFID": 5231707, "SiteName": "Veterans Memorial Park - Renton", "SiteType": "Park Site", "Owner": "City of Renton", "OwnerType": "City", "Manager": "City of Renton", "ManageType": "City", "Maintd_By": "City of Renton", "MaintType": "City", "Label_Type": 1 }, "geometry": { "type": "Point", "coordinates": [ -122.203877499288325, 47.479873267324024 ] } },
{ "type": "Feature", "properties": { "OBJECTID": 97, "KC_Fac_FID": 5022, "KCParkFID": 5242202, "SiteName": "Foresthill Neighborhood Park and Open Space", "SiteType": "Park Site", "Owner": "City of Bellevue", "OwnerType": "City", "Manager": "City of Bellevue", "ManageType": "City", "Maintd_By": "City of Bellevue", "MaintType": "City", "Label_Type": 0 }, "geometry": { "type": "Point", "coordinates": [ -122.163199225916571, 47.559452854240504 ] } },
{ "type": "Feature", "properties": { "OBJECTID": 98, "KC_Fac_FID": 5022, "KCParkFID": 5242202, "SiteName": "Foresthill Neighborhood Park and Open Space", "SiteType": "Park Site", "Owner": "City of Bellevue", "OwnerType": "City", "Manager": "City of Bellevue", "ManageType": "City", "Maintd_By": "City of Bellevue", "MaintType": "City", "Label_Type": 1 }, "geometry": { "type": "Point", "coordinates": [ -122.163432211809564, 47.558047672036459 ] } },
{ "type": "Feature", "properties": { "OBJECTID": 99, "KC_Fac_FID": 2662, "KCParkFID": 6223001, "SiteName": "Jenkins Creek Park", "SiteType": "Park Site", "Owner": "City of Covington", "OwnerType": "City", "Manager": "City of Covington", "ManageType": "City", "Maintd_By": "City of Covington", "MaintType": "City", "Label_Type": 0 }, "geometry": { "type": "Point", "coordinates": [ -122.096712788275426, 47.364764279508876 ] } },
{ "type": "Feature", "properties": { "OBJECTID": 100, "KC_Fac_FID": 2662, "KCParkFID": 6223001, "SiteName": "Jenkins Creek Park", "SiteType": "Park Site", "Owner": "City of Covington", "OwnerType": "City", "Manager": "City of Covington", "ManageType": "City", "Maintd_By": "City of Covington", "MaintType": "City", "Label_Type": 1 }, "geometry": { "type": "Point", "coordinates": [ -122.097791165249618, 47.362356333464582 ] } },
{ "type": "Feature", "properties": { "OBJECTID": 101, "KC_Fac_FID": 4868, "KCParkFID": 4230403, "SiteName": "Site 1 Duwamish", "SiteType": "Park Site", "Owner": "King County WLRD", "OwnerType": "County", "Manager": "King County WLRD", "ManageType": "County", "Maintd_By": "King County WLRD", "MaintType": "County", "Label_Type": 0 }, "geometry": { "type": "Point", "coordinates": [ -122.295114338435383, 47.503918135471444 ] } },
{ "type": "Feature", "properties": { "OBJECTID": 102, "KC_Fac_FID": 4868, "KCParkFID": 4230403, "SiteName": "Site 1 Duwamish", "SiteType": "Park Site", "Owner": "King County WLRD", "OwnerType": "County", "Manager": "King County WLRD", "ManageType": "County", "Maintd_By": "King County WLRD", "MaintType": "County", "Label_Type": 1 }, "geometry": { "type": "Point", "coordinates": [ -122.295695384588683, 47.503421873283564 ] } },
{ "type": "Feature", "properties": { "OBJECTID": 103, "KC_Fac_FID": 2603, "KCParkFID": 5252401, "SiteName": "Idylwood Beach Park", "SiteType": "Park Site", "Owner": "City of Redmond", "OwnerType": "City", "Manager": "City of Redmond", "ManageType": "City", "Maintd_By": "City of Redmond", "MaintType": "City", "Label_Type": 0 }, "geometry": { "type": "Point", "coordinates": [ -122.103374152647618, 47.641166835336712 ] } },
{ "type": "Feature", "properties": { "OBJECTID": 104, "KC_Fac_FID": 2603, "KCParkFID": 5252401, "SiteName": "Idylwood Beach Park", "SiteType": "Park Site", "Owner": "City of Redmond", "OwnerType": "City", "Manager": "City of Redmond", "ManageType": "City", "Maintd_By": "City of Redmond", "MaintType": "City", "Label_Type": 1 }, "geometry": { "type": "Point", "coordinates": [ -122.103051471810133, 47.642837289390293 ] } },
{ "type": "Feature", "properties": { "OBJECTID": 105, "KC_Fac_FID": 7133, "KCParkFID": 3252406, "SiteName": "Coe Play Park", "SiteType": "Park Site", "Owner": "City of Seattle", "OwnerType": "City", "Manager": "City of Seattle", "ManageType": "City", "Maintd_By": "City of Seattle", "MaintType": "City", "Label_Type": 1 }, "geometry": { "type": "Point", "coordinates": [ -122.365953019208391, 47.640107207908329 ] } },
{ "type": "Feature", "properties": { "OBJECTID": 106, "KC_Fac_FID": 2613, "KCParkFID": 5250802, "SiteName": "Terrace Park", "SiteType": "Park Site", "Owner": "City of Kirkland", "OwnerType": "City", "Manager": "City of Kirkland", "ManageType": "City", "Maintd_By": "City of Kirkland", "MaintType": "City", "Label_Type": 1 }, "geometry": { "type": "Point", "coordinates": [ -122.201027420702019, 47.665179862120915 ] } },
{ "type": "Feature", "properties": { "OBJECTID": 107, "KC_Fac_FID": 2682, "KCParkFID": 6241701, "SiteName": "Lake Sammamish State Park", "SiteType": "Park Site", "Owner": "Washington State Parks", "OwnerType": "State", "Manager": "Washington State Parks", "ManageType": "State", "Maintd_By": "Washington State Parks", "MaintType": "State", "Label_Type": 0 }, "geometry": { "type": "Point", "coordinates": [ -122.06108890943004, 47.561381158304627 ] } },
{ "type": "Feature", "properties": { "OBJECTID": 108, "KC_Fac_FID": 2682, "KCParkFID": 6241701, "SiteName": "Lake Sammamish State Park", "SiteType": "Park Site", "Owner": "Washington State Parks", "OwnerType": "State", "Manager": "Washington State Parks", "ManageType": "State", "Maintd_By": "Washington State Parks", "MaintType": "State", "Label_Type": 1 }, "geometry": { "type": "Point", "coordinates": [ -122.063051798405979, 47.555746408645177 ] } },
{ "type": "Feature", "properties": { "OBJECTID": 109, "KC_Fac_FID": 2806, "KCParkFID": 5262902, "SiteName": "North Kirkland Community Center", "SiteType": "Park Site", "Owner": "City of Kirkland", "OwnerType": "City", "Manager": "City of Kirkland", "ManageType": "City", "Maintd_By": "City of Kirkland", "MaintType": "City", "Label_Type": 0 }, "geometry": { "type": "Point", "coordinates": [ -122.203086831777412, 47.711690487118496 ] } },
{ "type": "Feature", "properties": { "OBJECTID": 110, "KC_Fac_FID": 2806, "KCParkFID": 5262902, "SiteName": "North Kirkland Community Center", "SiteType": "Park Site", "Owner": "City of Kirkland", "OwnerType": "City", "Manager": "City of Kirkland", "ManageType": "City", "Maintd_By": "City of Kirkland", "MaintType": "City", "Label_Type": 1 }, "geometry": { "type": "Point", "coordinates": [ -122.204526473980295, 47.712056389265186 ] } },
{ "type": "Feature", "properties": { "OBJECTID": 111, "KC_Fac_FID": 8111, "KCParkFID": 6243302, "SiteName": "Mine Hill Park", "SiteType": "Park Site", "Owner": "City of Issaquah", "OwnerType": "City", "Manager": "City of Issaquah", "ManageType": "City", "Maintd_By": "City of Issaquah", "MaintType": "City", "Label_Type": 0 }, "geometry": { "type": "Point", "coordinates": [ -122.038614971252116, 47.526999507289901 ] } },
{ "type": "Feature", "properties": { "OBJECTID": 112, "KC_Fac_FID": 8111, "KCParkFID": 6243302, "SiteName": "Mine Hill Park", "SiteType": "Park Site", "Owner": "City of Issaquah", "OwnerType": "City", "Manager": "City of Issaquah", "ManageType": "City", "Maintd_By": "City of Issaquah", "MaintType": "City", "Label_Type": 1 }, "geometry": { "type": "Point", "coordinates": [ -122.03748953038145, 47.524551986580057 ] } },
{ "type": "Feature", "properties": { "OBJECTID": 113, "KC_Fac_FID": 15339, "KCParkFID": 4230501, "SiteName": "Glendale Forest", "SiteType": "Park Site", "Owner": "King County Parks and Recreation", "OwnerType": "King County Parks", "Manager": "King County Parks and Recreation", "ManageType": "King County Parks", "Maintd_By": "King County Parks and Recreation", "MaintType": "King County Parks", "Label_Type": 0 }, "geometry": { "type": "Point", "coordinates": [ -122.322457425795761, 47.51026488793476 ] } },
{ "type": "Feature", "properties": { "OBJECTID": 114, "KC_Fac_FID": 15339, "KCParkFID": 4230501, "SiteName": "Glendale Forest", "SiteType": "Park Site", "Owner": "King County Parks and Recreation", "OwnerType": "King County Parks", "Manager": "King County Parks and Recreation", "ManageType": "King County Parks", "Maintd_By": "King County Parks and Recreation", "MaintType": "King County Parks", "Label_Type": 1 }, "geometry": { "type": "Point", "coordinates": [ -122.322535771775819, 47.511282057537301 ] } },
{ "type": "Feature", "properties": { "OBJECTID": 115, "KC_Fac_FID": 3125, "KCParkFID": 8230501, "SiteName": "Tollgate Farm", "SiteType": "Park Site", "Owner": "King County Parks and Recreation", "OwnerType": "King County Parks", "Manager": "King County Parks and Recreation", "ManageType": "King County Parks", "Maintd_By": "King County Parks and Recreation", "MaintType": "King County Parks", "Label_Type": 0 }, "geometry": { "type": "Point", "coordinates": [ -121.817521379013058, 47.50490938639804 ] } },
{ "type": "Feature", "properties": { "OBJECTID": 116, "KC_Fac_FID": 3125, "KCParkFID": 8230501, "SiteName": "Tollgate Farm", "SiteType": "Park Site", "Owner": "King County Parks and Recreation", "OwnerType": "King County Parks", "Manager": "King County Parks and Recreation", "ManageType": "King County Parks", "Maintd_By": "King County Parks and Recreation", "MaintType": "King County Parks", "Label_Type": 1 }, "geometry": { "type": "Point", "coordinates": [ -121.815071513446668, 47.501491173470392 ] } },
{ "type": "Feature", "properties": { "OBJECTID": 117, "KC_Fac_FID": 7843, "KCParkFID": 3260206, "SiteName": "Kayu Kayu Ac Park", "SiteType": "Park Site", "Owner": "Other King County", "OwnerType": "County", "Manager": "City of Shoreline", "ManageType": "City", "Maintd_By": "City of Shoreline", "MaintType": "City", "Label_Type": 1 }, "geometry": { "type": "Point", "coordinates": [ -122.392259402940809, 47.774394249867257 ] } },
{ "type": "Feature", "properties": { "OBJECTID": 118, "KC_Fac_FID": 7251, "KCParkFID": 4213002, "SiteName": "SW 363rd Street Open Space", "SiteType": "Park Site", "Owner": "City of Federal Way", "OwnerType": "City", "Manager": "City of Federal Way", "ManageType": "City", "Maintd_By": "City of Federal Way", "MaintType": "City", "Label_Type": 0 }, "geometry": { "type": "Point", "coordinates": [ -122.352707925064465, 47.276357893430905 ] } },
{ "type": "Feature", "properties": { "OBJECTID": 119, "KC_Fac_FID": 7251, "KCParkFID": 4213002, "SiteName": "SW 363rd Street Open Space", "SiteType": "Park Site", "Owner": "City of Federal Way", "OwnerType": "City", "Manager": "City of Federal Way", "ManageType": "City", "Maintd_By": "City of Federal Way", "MaintType": "City", "Label_Type": 1 }, "geometry": { "type": "Point", "coordinates": [ -122.351384586546288, 47.275041982361792 ] } },
{ "type": "Feature", "properties": { "OBJECTID": 120, "KC_Fac_FID": 6893, "KCParkFID": 5231803, "SiteName": "Gateway Park", "SiteType": "Park Site", "Owner": "City of Renton", "OwnerType": "City", "Manager": "City of Renton", "ManageType": "City", "Maintd_By": "City of Renton", "MaintType": "City", "Label_Type": 1 }, "geometry": { "type": "Point", "coordinates": [ -122.209523482663272, 47.479903954539694 ] } },
{ "type": "Feature", "properties": { "OBJECTID": 121, "KC_Fac_FID": 5169, "KCParkFID": 7242609, "SiteName": "Cottonwood Park", "SiteType": "Park Site", "Owner": "City of Snoqualmie", "OwnerType": "City", "Manager": "City of Snoqualmie", "ManageType": "City", "Maintd_By": "City of Snoqualmie", "MaintType": "City", "Label_Type": 1 }, "geometry": { "type": "Point", "coordinates": [ -121.879145298329291, 47.534093885381921 ] } },
{ "type": "Feature", "properties": { "OBJECTID": 122, "KC_Fac_FID": 7185, "KCParkFID": 3241003, "SiteName": "Alki Playground", "SiteType": "Park Site", "Owner": "City of Seattle", "OwnerType": "City", "Manager": "City of Seattle", "ManageType": "City", "Maintd_By": "City of Seattle", "MaintType": "City", "Label_Type": 1 }, "geometry": { "type": "Point", "coordinates": [ -122.407312538662069, 47.57849685043039 ] } },
{ "type": "Feature", "properties": { "OBJECTID": 123, "KC_Fac_FID": 7134, "KCParkFID": 3252407, "SiteName": "Queen Anne Boulevard", "SiteType": "Park Site", "Owner": "City of Seattle", "OwnerType": "City", "Manager": "City of Seattle", "ManageType": "City", "Maintd_By": "City of Seattle", "MaintType": "City", "Label_Type": 0 }, "geometry": { "type": "Point", "coordinates": [ -122.355232397567519, 47.629300532845114 ] } },
{ "type": "Feature", "properties": { "OBJECTID": 124, "KC_Fac_FID": 7134, "KCParkFID": 3252407, "SiteName": "Queen Anne Boulevard", "SiteType": "Park Site", "Owner": "City of Seattle", "OwnerType": "City", "Manager": "City of Seattle", "ManageType": "City", "Maintd_By": "City of Seattle", "MaintType": "City", "Label_Type": 1 }, "geometry": { "type": "Point", "coordinates": [ -122.361449298173355, 47.639797584240426 ] } },
{ "type": "Feature", "properties": { "OBJECTID": 125, "KC_Fac_FID": 7134, "KCParkFID": 3252407, "SiteName": "Queen Anne Boulevard", "SiteType": "Park Site", "Owner": "City of Seattle", "OwnerType": "City", "Manager": "City of Seattle", "ManageType": "City", "Maintd_By": "City of Seattle", "MaintType": "City", "Label_Type": 2 }, "geometry": { "type": "Point", "coordinates": [ -122.349145381504144, 47.631211957953099 ] } },
{ "type": "Feature", "properties": { "OBJECTID": 126, "KC_Fac_FID": 5013, "KCParkFID": 5242204, "SiteName": "Forest Drive Open Space", "SiteType": "Park Site", "Owner": "City of Bellevue", "OwnerType": "City", "Manager": "City of Bellevue", "ManageType": "City", "Maintd_By": "City of Bellevue", "MaintType": "City", "Label_Type": 0 }, "geometry": { "type": "Point", "coordinates": [ -122.160710696754251, 47.553325192618196 ] } },
{ "type": "Feature", "properties": { "OBJECTID": 127, "KC_Fac_FID": 5013, "KCParkFID": 5242204, "SiteName": "Forest Drive Open Space", "SiteType": "Park Site", "Owner": "City of Bellevue", "OwnerType": "City", "Manager": "City of Bellevue", "ManageType": "City", "Maintd_By": "City of Bellevue", "MaintType": "City", "Label_Type": 1 }, "geometry": { "type": "Point", "coordinates": [ -122.162820497121857, 47.555154105235367 ] } },
{ "type": "Feature", "properties": { "OBJECTID": 128, "KC_Fac_FID": 2579, "KCParkFID": 5252101, "SiteName": "Pikes Peak Greenbelt", "SiteType": "Park Site", "Owner": "City of Bellevue", "OwnerType": "City", "Manager": "City of Bellevue", "ManageType": "City", "Maintd_By": "City of Bellevue", "MaintType": "City", "Label_Type": 1 }, "geometry": { "type": "Point", "coordinates": [ -122.174631640147084, 47.644661307543707 ] } },
{ "type": "Feature", "properties": { "OBJECTID": 129, "KC_Fac_FID": 7184, "KCParkFID": 3241002, "SiteName": "Schmitz Boulevard", "SiteType": "Park Site", "Owner": "City of Seattle", "OwnerType": "City", "Manager": "City of Seattle", "ManageType": "City", "Maintd_By": "City of Seattle", "MaintType": "City", "Label_Type": 0 }, "geometry": { "type": "Point", "coordinates": [ -122.402978056429035, 47.576910977258692 ] } },
{ "type": "Feature", "properties": { "OBJECTID": 130, "KC_Fac_FID": 7184, "KCParkFID": 3241002, "SiteName": "Schmitz Boulevard", "SiteType": "Park Site", "Owner": "City of Seattle", "OwnerType": "City", "Manager": "City of Seattle", "ManageType": "City", "Maintd_By": "City of Seattle", "MaintType": "City", "Label_Type": 1 }, "geometry": { "type": "Point", "coordinates": [ -122.405077374463104, 47.577630575314444 ] } },
{ "type": "Feature", "properties": { "OBJECTID": 131, "KC_Fac_FID": 2289, "KCParkFID": 4242401, "SiteName": "Groveland Beach Park", "SiteType": "Park Site", "Owner": "City of Mercer Island", "OwnerType": "City", "Manager": "City of Mercer Island", "ManageType": "City", "Maintd_By": "City of Mercer Island", "MaintType": "City", "Label_Type": 1 }, "geometry": { "type": "Point", "coordinates": [ -122.233691729874323, 47.551121181086252 ] } },
{ "type": "Feature", "properties": { "OBJECTID": 132, "KC_Fac_FID": 2762, "KCParkFID": 5232401, "SiteName": "Ricardi Reach Natural Area", "SiteType": "Park Site", "Owner": "King County Parks and Recreation", "OwnerType": "King County Parks", "Manager": "King County Parks and Recreation", "ManageType": "King County Parks", "Maintd_By": "King County Parks and Recreation", "MaintType": "King County Parks", "Label_Type": 0 }, "geometry": { "type": "Point", "coordinates": [ -122.105794709051565, 47.463850065148179 ] } },
{ "type": "Feature", "properties": { "OBJECTID": 133, "KC_Fac_FID": 2762, "KCParkFID": 5232401, "SiteName": "Ricardi Reach Natural Area", "SiteType": "Park Site", "Owner": "King County Parks and Recreation", "OwnerType": "King County Parks", "Manager": "King County Parks and Recreation", "ManageType": "King County Parks", "Maintd_By": "King County Parks and Recreation", "MaintType": "King County Parks", "Label_Type": 1 }, "geometry": { "type": "Point", "coordinates": [ -122.103521844021145, 47.46359317844469 ] } },
{ "type": "Feature", "properties": { "OBJECTID": 134, "KC_Fac_FID": 7199, "KCParkFID": 4241505, "SiteName": "Landing Parkway", "SiteType": "Park Site", "Owner": "City of Seattle", "OwnerType": "City", "Manager": "City of Seattle", "ManageType": "City", "Maintd_By": "City of Seattle", "MaintType": "City", "Label_Type": 1 }, "geometry": { "type": "Point", "coordinates": [ -122.281918229091204, 47.573327009731372 ] } },
{ "type": "Feature", "properties": { "OBJECTID": 135, "KC_Fac_FID": 7102, "KCParkFID": 4250807, "SiteName": "Corliss Place", "SiteType": "Park Site", "Owner": "City of Seattle", "OwnerType": "City", "Manager": "City of Seattle", "ManageType": "City", "Maintd_By": "City of Seattle", "MaintType": "City", "Label_Type": 1 }, "geometry": { "type": "Point", "coordinates": [ -122.33087204444918, 47.665198856269434 ] } },
{ "type": "Feature", "properties": { "OBJECTID": 136, "KC_Fac_FID": 15341, "KCParkFID": 4213602, "SiteName": "Aspen Park", "SiteType": "Park Site", "Owner": "City of Pacific", "OwnerType": "City", "Manager": "City of Pacific", "ManageType": "City", "Maintd_By": "City of Pacific", "MaintType": "City", "Label_Type": 1 }, "geometry": { "type": "Point", "coordinates": [ -122.234668677448369, 47.268602498030788 ] } },
{ "type": "Feature", "properties": { "OBJECTID": 137, "KC_Fac_FID": 2588, "KCParkFID": 5251204, "SiteName": "Bear Creek Park - Redmond", "SiteType": "Park Site", "Owner": "City of Redmond", "OwnerType": "City", "Manager": "City of Redmond", "ManageType": "City", "Maintd_By": "City of Redmond", "MaintType": "City", "Label_Type": 1 }, "geometry": { "type": "Point", "coordinates": [ -122.108506843583484, 47.672377459726462 ] } },
{ "type": "Feature", "properties": { "OBJECTID": 138, "KC_Fac_FID": 7082, "KCParkFID": 4262903, "SiteName": "Northgate Park", "SiteType": "Park Site", "Owner": "City of Seattle", "OwnerType": "City", "Manager": "City of Seattle", "ManageType": "City", "Maintd_By": "City of Seattle", "MaintType": "City", "Label_Type": 1 }, "geometry": { "type": "Point", "coordinates": [ -122.322423330731141, 47.705193568922802 ] } },
{ "type": "Feature", "properties": { "OBJECTID": 139, "KC_Fac_FID": 5113, "KCParkFID": 5243405, "SiteName": "Highlands Trails", "SiteType": "Park Site", "Owner": "City of Newcastle", "OwnerType": "City", "Manager": "City of Newcastle", "ManageType": "City", "Maintd_By": "City of Newcastle", "MaintType": "City", "Label_Type": 0 }, "geometry": { "type": "Point", "coordinates": [ -122.153469776951553, 47.522874381260777 ] } },
{ "type": "Feature", "properties": { "OBJECTID": 140, "KC_Fac_FID": 5113, "KCParkFID": 5243405, "SiteName": "Highlands Trails", "SiteType": "Park Site", "Owner": "City of Newcastle", "OwnerType": "City", "Manager": "City of Newcastle", "ManageType": "City", "Maintd_By": "City of Newcastle", "MaintType": "City", "Label_Type": 1 }, "geometry": { "type": "Point", "coordinates": [ -122.151751189430868, 47.520542123800155 ] } },
{ "type": "Feature", "properties": { "OBJECTID": 141, "KC_Fac_FID": 2370, "KCParkFID": 5211601, "SiteName": "Auburn Narrows Natural Area", "SiteType": "Park Site", "Owner": "King County Parks and Recreation", "OwnerType": "King County Parks", "Manager": "King County Parks and Recreation", "ManageType": "King County Parks", "Maintd_By": "King County Parks and Recreation", "MaintType": "King County Parks", "Label_Type": 0 }, "geometry": { "type": "Point", "coordinates": [ -122.188256420467908, 47.304314633243507 ] } },
{ "type": "Feature", "properties": { "OBJECTID": 142, "KC_Fac_FID": 2370, "KCParkFID": 5211601, "SiteName": "Auburn Narrows Natural Area", "SiteType": "Park Site", "Owner": "King County Parks and Recreation", "OwnerType": "King County Parks", "Manager": "King County Parks and Recreation", "ManageType": "King County Parks", "Maintd_By": "King County Parks and Recreation", "MaintType": "King County Parks", "Label_Type": 1 }, "geometry": { "type": "Point", "coordinates": [ -122.184668777722806, 47.302822283966393 ] } },
{ "type": "Feature", "properties": { "OBJECTID": 143, "KC_Fac_FID": 2370, "KCParkFID": 5211601, "SiteName": "Auburn Narrows Natural Area", "SiteType": "Park Site", "Owner": "King County Parks and Recreation", "OwnerType": "King County Parks", "Manager": "King County Parks and Recreation", "ManageType": "King County Parks", "Maintd_By": "King County Parks and Recreation", "MaintType": "King County Parks", "Label_Type": 2 }, "geometry": { "type": "Point", "coordinates": [ -122.195151136263576, 47.3035313409165 ] } },
{ "type": "Feature", "properties": { "OBJECTID": 144, "KC_Fac_FID": 3063, "KCParkFID": 4221503, "SiteName": "Cottonwood Grove Park", "SiteType": "Park Site", "Owner": "City of Kent", "OwnerType": "City", "Manager": "City of Kent", "ManageType": "City", "Maintd_By": "City of Kent", "MaintType": "City", "Label_Type": 1 }, "geometry": { "type": "Point", "coordinates": [ -122.271838108604783, 47.388070536313052 ] } },
{ "type": "Feature", "properties": { "OBJECTID": 145, "KC_Fac_FID": 5045, "KCParkFID": 5241503, "SiteName": "Somerset Highlands Open Space", "SiteType": "Park Site", "Owner": "City of Bellevue", "OwnerType": "City", "Manager": "City of Bellevue", "ManageType": "City", "Maintd_By": "City of Bellevue", "MaintType": "City", "Label_Type": 0 }, "geometry": { "type": "Point", "coordinates": [ -122.150436729529275, 47.560240340655071 ] } },
{ "type": "Feature", "properties": { "OBJECTID": 146, "KC_Fac_FID": 5045, "KCParkFID": 5241503, "SiteName": "Somerset Highlands Open Space", "SiteType": "Park Site", "Owner": "City of Bellevue", "OwnerType": "City", "Manager": "City of Bellevue", "ManageType": "City", "Maintd_By": "City of Bellevue", "MaintType": "City", "Label_Type": 1 }, "geometry": { "type": "Point", "coordinates": [ -122.150905643554353, 47.560011969000598 ] } },
{ "type": "Feature", "properties": { "OBJECTID": 147, "KC_Fac_FID": 7176, "KCParkFID": 4241605, "SiteName": "Cheasty Boulevard", "SiteType": "Park Site", "Owner": "City of Seattle", "OwnerType": "City", "Manager": "City of Seattle", "ManageType": "City", "Maintd_By": "City of Seattle", "MaintType": "City", "Label_Type": 1 }, "geometry": { "type": "Point", "coordinates": [ -122.300714883551365, 47.564458149726924 ] } },
{ "type": "Feature", "properties": { "OBJECTID": 148, "KC_Fac_FID": 2837, "KCParkFID": 5231604, "SiteName": "Riverview Park - Renton", "SiteType": "Park Site", "Owner": "City of Renton", "OwnerType": "City", "Manager": "City of Renton", "ManageType": "City", "Maintd_By": "City of Renton", "MaintType": "City", "Label_Type": 1 }, "geometry": { "type": "Point", "coordinates": [ -122.181518165126661, 47.476399308862781 ] } },
{ "type": "Feature", "properties": { "OBJECTID": 149, "KC_Fac_FID": 5304, "KCParkFID": 6221602, "SiteName": "Take-A-Break Park", "SiteType": "Park Site", "Owner": "City of Maple Valley", "OwnerType": "City", "Manager": "City of Maple Valley", "ManageType": "City", "Maintd_By": "City of Maple Valley", "MaintType": "City", "Label_Type": 1 }, "geometry": { "type": "Point", "coordinates": [ -122.04884227598474, 47.390604862573056 ] } },
{ "type": "Feature", "properties": { "OBJECTID": 150, "KC_Fac_FID": 7250, "KCParkFID": 3222904, "SiteName": "Dockton Natural Area", "SiteType": "Park Site", "Owner": "King County Parks and Recreation", "OwnerType": "King County Parks", "Manager": "King County Parks and Recreation", "ManageType": "King County Parks", "Maintd_By": "King County Parks and Recreation", "MaintType": "King County Parks", "Label_Type": 0 }, "geometry": { "type": "Point", "coordinates": [ -122.452151185476708, 47.36807939581746 ] } },
{ "type": "Feature", "properties": { "OBJECTID": 151, "KC_Fac_FID": 7250, "KCParkFID": 3222904, "SiteName": "Dockton Natural Area", "SiteType": "Park Site", "Owner": "King County Parks and Recreation", "OwnerType": "King County Parks", "Manager": "King County Parks and Recreation", "ManageType": "King County Parks", "Maintd_By": "King County Parks and Recreation", "MaintType": "King County Parks", "Label_Type": 1 }, "geometry": { "type": "Point", "coordinates": [ -122.446631447948818, 47.372125464242771 ] } },
{ "type": "Feature", "properties": { "OBJECTID": 152, "KC_Fac_FID": 7250, "KCParkFID": 3222904, "SiteName": "Dockton Natural Area", "SiteType": "Park Site", "Owner": "King County Parks and Recreation", "OwnerType": "King County Parks", "Manager": "King County Parks and Recreation", "ManageType": "King County Parks", "Maintd_By": "King County Parks and Recreation", "MaintType": "King County Parks", "Label_Type": 2 }, "geometry": { "type": "Point", "coordinates": [ -122.458596333810036, 47.371738553251106 ] } },
{ "type": "Feature", "properties": { "OBJECTID": 153, "KC_Fac_FID": 7836, "KCParkFID": 6211405, "SiteName": "Jones Lake Open Space", "SiteType": "Park Site", "Owner": "City of Black Diamond", "OwnerType": "City", "Manager": "City of Black Diamond", "ManageType": "City", "Maintd_By": "City of Black Diamond", "MaintType": "City", "Label_Type": 1 }, "geometry": { "type": "Point", "coordinates": [ -122.006057966209198, 47.302827887815617 ] } },
{ "type": "Feature", "properties": { "OBJECTID": 154, "KC_Fac_FID": 5037, "KCParkFID": 5242215, "SiteName": "Owl Avenue Open Space", "SiteType": "Park Site", "Owner": "City of Bellevue", "OwnerType": "City", "Manager": "City of Bellevue", "ManageType": "City", "Maintd_By": "City of Bellevue", "MaintType": "City", "Label_Type": 1 }, "geometry": { "type": "Point", "coordinates": [ -122.14999813021771, 47.548460537700031 ] } },
{ "type": "Feature", "properties": { "OBJECTID": 155, "KC_Fac_FID": 2481, "KCParkFID": 3231801, "SiteName": "Fern Cove", "SiteType": "Park Site", "Owner": "Vashon PRSD", "OwnerType": "Park District", "Manager": "Vashon PRSD", "ManageType": "Park District", "Maintd_By": "Vashon PRSD", "MaintType": "Park District", "Label_Type": 0 }, "geometry": { "type": "Point", "coordinates": [ -122.480904449074174, 47.480282125849335 ] } },
{ "type": "Feature", "properties": { "OBJECTID": 156, "KC_Fac_FID": 2481, "KCParkFID": 3231801, "SiteName": "Fern Cove", "SiteType": "Park Site", "Owner": "Vashon PRSD", "OwnerType": "Park District", "Manager": "Vashon PRSD", "ManageType": "Park District", "Maintd_By": "Vashon PRSD", "MaintType": "Park District", "Label_Type": 1 }, "geometry": { "type": "Point", "coordinates": [ -122.481268799867095, 47.479268243820101 ] } },
{ "type": "Feature", "properties": { "OBJECTID": 157, "KC_Fac_FID": 2621, "KCParkFID": 5242101, "SiteName": "Newport Hills Park", "SiteType": "Park Site", "Owner": "City of Bellevue", "OwnerType": "City", "Manager": "City of Bellevue", "ManageType": "City", "Maintd_By": "City of Bellevue", "MaintType": "City", "Label_Type": 1 }, "geometry": { "type": "Point", "coordinates": [ -122.180988278244584, 47.54842420874683 ] } },
{ "type": "Feature", "properties": { "OBJECTID": 158, "KC_Fac_FID": 2488, "KCParkFID": 4231401, "SiteName": "Foster Golf Links", "SiteType": "Park Site", "Owner": "City of Tukwila", "OwnerType": "City", "Manager": "City of Tukwila", "ManageType": "City", "Maintd_By": "City of Tukwila", "MaintType": "City", "Label_Type": 0 }, "geometry": { "type": "Point", "coordinates": [ -122.256330389191547, 47.477980555449818 ] } },
{ "type": "Feature", "properties": { "OBJECTID": 159, "KC_Fac_FID": 2488, "KCParkFID": 4231401, "SiteName": "Foster Golf Links", "SiteType": "Park Site", "Owner": "City of Tukwila", "OwnerType": "City", "Manager": "City of Tukwila", "ManageType": "City", "Maintd_By": "City of Tukwila", "MaintType": "City", "Label_Type": 1 }, "geometry": { "type": "Point", "coordinates": [ -122.264619050302841, 47.481969980591707 ] } },
{ "type": "Feature", "properties": { "OBJECTID": 160, "KC_Fac_FID": 7821, "KCParkFID": 4231802, "SiteName": "Linde Hill Park", "SiteType": "Park Site", "Owner": "City of Burien", "OwnerType": "City", "Manager": "City of Burien", "ManageType": "City", "Maintd_By": "City of Burien", "MaintType": "City", "Label_Type": 1 }, "geometry": { "type": "Point", "coordinates": [ -122.344024294626621, 47.47687199485388 ] } },
{ "type": "Feature", "properties": { "OBJECTID": 161, "KC_Fac_FID": 2671, "KCParkFID": 4240302, "SiteName": "Leschi Park", "SiteType": "Park Site", "Owner": "City of Seattle", "OwnerType": "City", "Manager": "City of Seattle", "ManageType": "City", "Maintd_By": "City of Seattle", "MaintType": "City", "Label_Type": 0 }, "geometry": { "type": "Point", "coordinates": [ -122.289037665502732, 47.600940948173196 ] } },
{ "type": "Feature", "properties": { "OBJECTID": 162, "KC_Fac_FID": 2671, "KCParkFID": 4240302, "SiteName": "Leschi Park", "SiteType": "Park Site", "Owner": "City of Seattle", "OwnerType": "City", "Manager": "City of Seattle", "ManageType": "City", "Maintd_By": "City of Seattle", "MaintType": "City", "Label_Type": 1 }, "geometry": { "type": "Point", "coordinates": [ -122.286717946404949, 47.600978104230911 ] } },
{ "type": "Feature", "properties": { "OBJECTID": 163, "KC_Fac_FID": 6976, "KCParkFID": 3252602, "SiteName": "Ursula Judkins Viewpoint", "SiteType": "Park Site", "Owner": "City of Seattle", "OwnerType": "City", "Manager": "City of Seattle", "ManageType": "City", "Maintd_By": "City of Seattle", "MaintType": "City", "Label_Type": 1 }, "geometry": { "type": "Point", "coordinates": [ -122.390232764491557, 47.632052112345441 ] } },
{ "type": "Feature", "properties": { "OBJECTID": 164, "KC_Fac_FID": 7060, "KCParkFID": 3241505, "SiteName": "Emma Schmitz Memorial Overlook", "SiteType": "Park Site", "Owner": "City of Seattle", "OwnerType": "City", "Manager": "City of Seattle", "ManageType": "City", "Maintd_By": "City of Seattle", "MaintType": "City", "Label_Type": 1 }, "geometry": { "type": "Point", "coordinates": [ -122.407108467720846, 47.562883754724496 ] } },
{ "type": "Feature", "properties": { "OBJECTID": 165, "KC_Fac_FID": 2687, "KCParkFID": 6241102, "SiteName": "Klahanie Park", "SiteType": "Park Site", "Owner": "City of Sammamish", "OwnerType": "City", "Manager": "City of Sammamish", "ManageType": "City", "Maintd_By": "City of Sammamish", "MaintType": "City", "Label_Type": 0 }, "geometry": { "type": "Point", "coordinates": [ -122.012689388967573, 47.578804027096396 ] } },
{ "type": "Feature", "properties": { "OBJECTID": 166, "KC_Fac_FID": 2687, "KCParkFID": 6241102, "SiteName": "Klahanie Park", "SiteType": "Park Site", "Owner": "City of Sammamish", "OwnerType": "City", "Manager": "City of Sammamish", "ManageType": "City", "Maintd_By": "City of Sammamish", "MaintType": "City", "Label_Type": 1 }, "geometry": { "type": "Point", "coordinates": [ -122.007791410623938, 47.578383055380037 ] } },
{ "type": "Feature", "properties": { "OBJECTID": 167, "KC_Fac_FID": 4559, "KCParkFID": 6190101, "SiteName": "Anderson Riverview Park", "SiteType": "Park Site", "Owner": "City of Enumclaw", "OwnerType": "City", "Manager": "City of Enumclaw", "ManageType": "City", "Maintd_By": "City of Enumclaw", "MaintType": "City", "Label_Type": 1 }, "geometry": { "type": "Point", "coordinates": [ -121.981741603504602, 47.164555053646865 ] } },
{ "type": "Feature", "properties": { "OBJECTID": 168, "KC_Fac_FID": 2522, "KCParkFID": 4240102, "SiteName": "Aubrey Davis Park", "SiteType": "Park Site", "Owner": "City of Mercer Island", "OwnerType": "City", "Manager": "City of Mercer Island", "ManageType": "City", "Maintd_By": "City of Mercer Island", "MaintType": "City", "Label_Type": 1 }, "geometry": { "type": "Point", "coordinates": [ -122.246180812952531, 47.592077567299057 ] } },
{ "type": "Feature", "properties": { "OBJECTID": 169, "KC_Fac_FID": 2529, "KCParkFID": 4232501, "SiteName": "Bicentennial Park - Tukwila", "SiteType": "Park Site", "Owner": "City of Tukwila", "OwnerType": "City", "Manager": "City of Tukwila", "ManageType": "City", "Maintd_By": "City of Tukwila", "MaintType": "City", "Label_Type": 1 }, "geometry": { "type": "Point", "coordinates": [ -122.246878369017551, 47.456338554024462 ] } },
{ "type": "Feature", "properties": { "OBJECTID": 170, "KC_Fac_FID": 6942, "KCParkFID": 4240404, "SiteName": "Sam Smith Park", "SiteType": "Park Site", "Owner": "City of Seattle", "OwnerType": "City", "Manager": "City of Seattle", "ManageType": "City", "Maintd_By": "City of Seattle", "MaintType": "City", "Label_Type": 1 }, "geometry": { "type": "Point", "coordinates": [ -122.300291275628396, 47.590126434637412 ] } },
{ "type": "Feature", "properties": { "OBJECTID": 171, "KC_Fac_FID": 2657, "KCParkFID": 6250701, "SiteName": "Arthur Johnson Park", "SiteType": "Park Site", "Owner": "City of Redmond", "OwnerType": "City", "Manager": "City of Redmond", "ManageType": "City", "Maintd_By": "City of Redmond", "MaintType": "City", "Label_Type": 1 }, "geometry": { "type": "Point", "coordinates": [ -122.081155032048926, 47.67396715684167 ] } },
{ "type": "Feature", "properties": { "OBJECTID": 172, "KC_Fac_FID": 7143, "KCParkFID": 3252204, "SiteName": "Eastmont Place", "SiteType": "Park Site", "Owner": "City of Seattle", "OwnerType": "City", "Manager": "City of Seattle", "ManageType": "City", "Maintd_By": "City of Seattle", "MaintType": "City", "Label_Type": 1 }, "geometry": { "type": "Point", "coordinates": [ -122.405570622816427, 47.637671933549328 ] } },
{ "type": "Feature", "properties": { "OBJECTID": 173, "KC_Fac_FID": 7835, "KCParkFID": 6211404, "SiteName": "Black Diamond BMX Park", "SiteType": "Park Site", "Owner": "City of Black Diamond", "OwnerType": "City", "Manager": "City of Black Diamond", "ManageType": "City", "Maintd_By": "City of Black Diamond", "MaintType": "City", "Label_Type": 1 }, "geometry": { "type": "Point", "coordinates": [ -122.002339195382831, 47.308084829938046 ] } },
{ "type": "Feature", "properties": { "OBJECTID": 174, "KC_Fac_FID": 2428, "KCParkFID": 8231001, "SiteName": "Little Si Natural Area", "SiteType": "Park Site", "Owner": "King County Parks and Recreation", "OwnerType": "King County Parks", "Manager": "King County Parks and Recreation", "ManageType": "King County Parks", "Maintd_By": "King County Parks and Recreation", "MaintType": "King County Parks", "Label_Type": 0 }, "geometry": { "type": "Point", "coordinates": [ -121.759181185662158, 47.495069493051972 ] } },
{ "type": "Feature", "properties": { "OBJECTID": 175, "KC_Fac_FID": 2428, "KCParkFID": 8231001, "SiteName": "Little Si Natural Area", "SiteType": "Park Site", "Owner": "King County Parks and Recreation", "OwnerType": "King County Parks", "Manager": "King County Parks and Recreation", "ManageType": "King County Parks", "Maintd_By": "King County Parks and Recreation", "MaintType": "King County Parks", "Label_Type": 1 }, "geometry": { "type": "Point", "coordinates": [ -121.759624121480599, 47.497722006168836 ] } },
{ "type": "Feature", "properties": { "OBJECTID": 176, "KC_Fac_FID": 2690, "KCParkFID": 6231901, "SiteName": "Cedar Grove Natural Area", "SiteType": "Park Site", "Owner": "King County Parks and Recreation", "OwnerType": "King County Parks", "Manager": "King County Parks and Recreation", "ManageType": "King County Parks", "Maintd_By": "King County Parks and Recreation", "MaintType": "King County Parks", "Label_Type": 0 }, "geometry": { "type": "Point", "coordinates": [ -122.085400388790106, 47.464147395340348 ] } },
{ "type": "Feature", "properties": { "OBJECTID": 177, "KC_Fac_FID": 2690, "KCParkFID": 6231901, "SiteName": "Cedar Grove Natural Area", "SiteType": "Park Site", "Owner": "King County Parks and Recreation", "OwnerType": "King County Parks", "Manager": "King County Parks and Recreation", "ManageType": "King County Parks", "Maintd_By": "King County Parks and Recreation", "MaintType": "King County Parks", "Label_Type": 1 }, "geometry": { "type": "Point", "coordinates": [ -122.082612334723521, 47.462440312159337 ] } },
{ "type": "Feature", "properties": { "OBJECTID": 178, "KC_Fac_FID": 3140, "KCParkFID": 6251701, "SiteName": "Evans Crest Natural Area", "SiteType": "Park Site", "Owner": "King County Parks and Recreation", "OwnerType": "King County Parks", "Manager": "King County Parks and Recreation", "ManageType": "King County Parks", "Maintd_By": "King County Parks and Recreation", "MaintType": "King County Parks", "Label_Type": 1 }, "geometry": { "type": "Point", "coordinates": [ -122.065234053619136, 47.65169083700227 ] } },
{ "type": "Feature", "properties": { "OBJECTID": 179, "KC_Fac_FID": 15407, "KCParkFID": 4231404, "SiteName": "West Skyway Natural Area", "SiteType": "Park Site", "Owner": "King County Parks and Recreation", "OwnerType": "King County Parks", "Manager": "King County Parks and Recreation", "ManageType": "King County Parks", "Maintd_By": "King County Parks and Recreation", "MaintType": "King County Parks", "Label_Type": 0 }, "geometry": { "type": "Point", "coordinates": [ -122.262952190717428, 47.488427604037334 ] } },
{ "type": "Feature", "properties": { "OBJECTID": 180, "KC_Fac_FID": 15407, "KCParkFID": 4231404, "SiteName": "West Skyway Natural Area", "SiteType": "Park Site", "Owner": "King County Parks and Recreation", "OwnerType": "King County Parks", "Manager": "King County Parks and Recreation", "ManageType": "King County Parks", "Maintd_By": "King County Parks and Recreation", "MaintType": "King County Parks", "Label_Type": 1 }, "geometry": { "type": "Point", "coordinates": [ -122.262672897010361, 47.488016071226838 ] } },
{ "type": "Feature", "properties": { "OBJECTID": 181, "KC_Fac_FID": 2320, "KCParkFID": 5221501, "SiteName": "Soos Creek Park and Trail", "SiteType": "Park Site", "Owner": "King County Parks and Recreation", "OwnerType": "King County Parks", "Manager": "King County Parks and Recreation", "ManageType": "King County Parks", "Maintd_By": "King County Parks and Recreation", "MaintType": "King County Parks", "Label_Type": 0 }, "geometry": { "type": "Point", "coordinates": [ -122.167180795472859, 47.423053461338 ] } },
{ "type": "Feature", "properties": { "OBJECTID": 182, "KC_Fac_FID": 2320, "KCParkFID": 5221501, "SiteName": "Soos Creek Park and Trail", "SiteType": "Park Site", "Owner": "King County Parks and Recreation", "OwnerType": "King County Parks", "Manager": "King County Parks and Recreation", "ManageType": "King County Parks", "Maintd_By": "King County Parks and Recreation", "MaintType": "King County Parks", "Label_Type": 1 }, "geometry": { "type": "Point", "coordinates": [ -122.151622344092999, 47.391346937030754 ] } },
{ "type": "Feature", "properties": { "OBJECTID": 183, "KC_Fac_FID": 2320, "KCParkFID": 5221501, "SiteName": "Soos Creek Park and Trail", "SiteType": "Park Site", "Owner": "King County Parks and Recreation", "OwnerType": "King County Parks", "Manager": "King County Parks and Recreation", "ManageType": "King County Parks", "Maintd_By": "King County Parks and Recreation", "MaintType": "King County Parks", "Label_Type": 2 }, "geometry": { "type": "Point", "coordinates": [ -122.16750004296695, 47.44224112081401 ] } },
{ "type": "Feature", "properties": { "OBJECTID": 184, "KC_Fac_FID": 2320, "KCParkFID": 5221501, "SiteName": "Soos Creek Park and Trail", "SiteType": "Park Site", "Owner": "King County Parks and Recreation", "OwnerType": "King County Parks", "Manager": "King County Parks and Recreation", "ManageType": "King County Parks", "Maintd_By": "King County Parks and Recreation", "MaintType": "King County Parks", "Label_Type": 3 }, "geometry": { "type": "Point", "coordinates": [ -122.159254664113234, 47.464969593704772 ] } },
{ "type": "Feature", "properties": { "OBJECTID": 185, "KC_Fac_FID": 8052, "KCParkFID": 4253110, "SiteName": "Belltown P-Patch", "SiteType": "Park Site", "Owner": "City of Seattle", "OwnerType": "City", "Manager": "City of Seattle", "ManageType": "City", "Maintd_By": "City of Seattle", "MaintType": "City", "Label_Type": 1 }, "geometry": { "type": "Point", "coordinates": [ -122.350960670216068, 47.61399836658795 ] } },
{ "type": "Feature", "properties": { "OBJECTID": 186, "KC_Fac_FID": 7845, "KCParkFID": 3252510, "SiteName": "Bayview-Kinnear Park", "SiteType": "Park Site", "Owner": "City of Seattle", "OwnerType": "City", "Manager": "City of Seattle", "ManageType": "City", "Maintd_By": "City of Seattle", "MaintType": "City", "Label_Type": 0 }, "geometry": { "type": "Point", "coordinates": [ -122.360460802394385, 47.628870985924827 ] } },
{ "type": "Feature", "properties": { "OBJECTID": 187, "KC_Fac_FID": 7845, "KCParkFID": 3252510, "SiteName": "Bayview-Kinnear Park", "SiteType": "Park Site", "Owner": "City of Seattle", "OwnerType": "City", "Manager": "City of Seattle", "ManageType": "City", "Maintd_By": "City of Seattle", "MaintType": "City", "Label_Type": 1 }, "geometry": { "type": "Point", "coordinates": [ -122.360157290236685, 47.628978089193971 ] } },
{ "type": "Feature", "properties": { "OBJECTID": 188, "KC_Fac_FID": 2572, "KCParkFID": 4222701, "SiteName": "West Fenwick Park", "SiteType": "Park Site", "Owner": "City of Kent", "OwnerType": "City", "Manager": "City of Kent", "ManageType": "City", "Maintd_By": "City of Kent", "MaintType": "City", "Label_Type": 0 }, "geometry": { "type": "Point", "coordinates": [ -122.28306924406175, 47.368795339336863 ] } },
{ "type": "Feature", "properties": { "OBJECTID": 189, "KC_Fac_FID": 2572, "KCParkFID": 4222701, "SiteName": "West Fenwick Park", "SiteType": "Park Site", "Owner": "City of Kent", "OwnerType": "City", "Manager": "City of Kent", "ManageType": "City", "Maintd_By": "City of Kent", "MaintType": "City", "Label_Type": 1 }, "geometry": { "type": "Point", "coordinates": [ -122.282185723814791, 47.371018911016442 ] } },
{ "type": "Feature", "properties": { "OBJECTID": 190, "KC_Fac_FID": 8110, "KCParkFID": 6243404, "SiteName": "Ingi Johnson Park", "SiteType": "Park Site", "Owner": "City of Issaquah", "OwnerType": "City", "Manager": "City of Issaquah", "ManageType": "City", "Maintd_By": "City of Issaquah", "MaintType": "City", "Label_Type": 0 }, "geometry": { "type": "Point", "coordinates": [ -122.03690583346976, 47.524519243509026 ] } },
{ "type": "Feature", "properties": { "OBJECTID": 191, "KC_Fac_FID": 8110, "KCParkFID": 6243404, "SiteName": "Ingi Johnson Park", "SiteType": "Park Site", "Owner": "City of Issaquah", "OwnerType": "City", "Manager": "City of Issaquah", "ManageType": "City", "Maintd_By": "City of Issaquah", "MaintType": "City", "Label_Type": 1 }, "geometry": { "type": "Point", "coordinates": [ -122.036397368790574, 47.523357263576649 ] } },
{ "type": "Feature", "properties": { "OBJECTID": 192, "KC_Fac_FID": 2731, "KCParkFID": 5263602, "SiteName": "Johnathan Hartman Park", "SiteType": "Park Site", "Owner": "City of Redmond", "OwnerType": "City", "Manager": "City of Redmond", "ManageType": "City", "Maintd_By": "City of Redmond", "MaintType": "City", "Label_Type": 1 }, "geometry": { "type": "Point", "coordinates": [ -122.108207554451411, 47.690971864281501 ] } },
{ "type": "Feature", "properties": { "OBJECTID": 193, "KC_Fac_FID": 7200, "KCParkFID": 4241506, "SiteName": "Sierra Place", "SiteType": "Park Site", "Owner": "City of Seattle", "OwnerType": "City", "Manager": "City of Seattle", "ManageType": "City", "Maintd_By": "City of Seattle", "MaintType": "City", "Label_Type": 1 }, "geometry": { "type": "Point", "coordinates": [ -122.282491089485944, 47.573282460519493 ] } },
{ "type": "Feature", "properties": { "OBJECTID": 194, "KC_Fac_FID": 2679, "KCParkFID": 6242001, "SiteName": "Sammamish Cove Park", "SiteType": "Park Site", "Owner": "City of Issaquah", "OwnerType": "City", "Manager": "City of Issaquah", "ManageType": "City", "Maintd_By": "City of Issaquah", "MaintType": "City", "Label_Type": 0 }, "geometry": { "type": "Point", "coordinates": [ -122.07172195523917, 47.55516326014012 ] } },
{ "type": "Feature", "properties": { "OBJECTID": 195, "KC_Fac_FID": 2679, "KCParkFID": 6242001, "SiteName": "Sammamish Cove Park", "SiteType": "Park Site", "Owner": "City of Issaquah", "OwnerType": "City", "Manager": "City of Issaquah", "ManageType": "City", "Maintd_By": "City of Issaquah", "MaintType": "City", "Label_Type": 1 }, "geometry": { "type": "Point", "coordinates": [ -122.072727384733668, 47.554369167427708 ] } },
{ "type": "Feature", "properties": { "OBJECTID": 2239, "KC_Fac_FID": null, "KCParkFID": null, "SiteName": null, "SiteType": null, "Owner": null, "OwnerType": null, "Manager": null, "ManageType": null, "Maintd_By": null, "MaintType": null, "Label_Type": 1 }, "geometry": { "type": "Point", "coordinates": [ -122.316432589952683, 47.607254364761239 ] } }
]
}
